Vers 57
USE_SERIAL_FEEDBACK=false
DEVELOPMENT_MODE=false
USE_RMC_ONLY=false

$GPRMC,183410.001,A,4305.1494,N,07740.8738,W,0.02,342.94,030319,,,A*7A
$GPGGA,183410.200,4305.1494,N,07740.8738,W,1,08,1.03,154.2,M,-34.4,M,,*5F
lng=-77.681236, lat=43.085823, altitude=154.20, speed=0.02, satellites=8, angle=342.9400, fixquality=1
$GPRMC,183410.400,A,4305.1494,N,07740.8738,W,0.03,197.50,030319,,,A*7C
$GPGGA,183410.600,4305.1494,N,07740.8738,W,1,08,1.03,154.3,M,-34.4,M,,*5A
lng=-77.681236, lat=43.085823, altitude=154.20, speed=0.03, satellites=8, angle=197.5000, fixquality=1
$GPRMC,183410.800,A,4305.1494,N,07740.8738,W,0.01,340.69,030319,,,A*70
$GPGGA,183411.000,4305.1495,N,07740.8737,W,1,08,1.03,154.3,M,-34.4,M,,*53
lng=-77.681236, lat=43.085823, altitude=154.30, speed=0.01, satellites=8, angle=340.6900, fixquality=1
$GPRMC,183411.200,A,4305.1495,N,07740.8737,W,0.01,24.91,030319,,,A*43
$GPGGA,183411.400,4305.1495,N,07740.8737,W,1,08,1.03,154.3,M,-34.4,M,,*57
lng=-77.681228, lat=43.085823, altitude=154.30, speed=0.01, satellites=8, angle=24.9100, fixquality=1
$GPRMC,183411.600,A,4305.1495,N,07740.8738,W,0.01,87.62,030319,,,A*4D
$GPGGA,183411.800,4305.1495,N,07740.8738,W,1,08,1.03,154.3,M,-34.4,M,,*54
lng=-77.681236, lat=43.085823, altitude=154.30, speed=0.01, satellites=8, angle=87.6200, fixquality=1
$GPRMC,183412.000,A,4305.1495,N,07740.8738,W,0.01,179.56,030319,,,A*7F
$GPGGA,183412.200,4305.1495,N,07740.8738,W,1,08,1.03,154.3,M,-34.4,M,,*5D
lng=-77.681236, lat=43.085823, altitude=154.30, speed=0.01, satellites=8, angle=179.5600, fixquality=1
$GPRMC,183412.400,A,4305.1495,N,07740.8738,W,0.02,194.29,030319,,,A*73
$GPGGA,183412.600,4305.1495,N,07740.8738,W,1,08,1.03,154.3,M,-34.4,M,,*59
lng=-77.681236, lat=43.085823, altitude=154.30, speed=0.02, satellites=8, angle=194.2900, fixquality=1
$GPRMC,183412.800,A,4305.1495,N,07740.8738,W,0.03,208.35,030319,,,A*75
$GPGGA,183413.000,4305.1495,N,07740.8738,W,1,08,1.03,154.4,M,-34.4,M,,*59
lng=-77.681236, lat=43.085823, altitude=154.30, speed=0.03, satellites=8, angle=208.3500, fixquality=1
$GPRMC,183413.200,A,4305.1495,N,07740.8738,W,0.01,49.25,030319,,,A*4A
$GPGGA,183413.400,4305.1495,N,07740.8738,W,1,08,1.03,154.4,M,-34.4,M,,*5D
lng=-77.681236, lat=43.085823, altitude=154.40, speed=0.01, satellites=8, angle=49.2500, fixquality=1
$GPRMC,183413.600,A,4305.1495,N,07740.8738,W,0.01,12.97,030319,,,A*49
$GPGGA,183413.800,4305.1495,N,07740.8738,W,1,08,1.08,154.4,M,-34.4,M,,*5A
lng=-77.681236, lat=43.085823, altitude=154.40, speed=0.01, satellites=8, angle=12.9700, fixquality=1
$GPRMC,183414.000,A,4305.1495,N,07740.8738,W,0.03,26.11,030319,,,A*43
$GPGGA,183414.200,4305.1495,N,07740.8738,W,1,08,1.03,154.4,M,-34.4,M,,*5C
lng=-77.681236, lat=43.085823, altitude=154.40, speed=0.03, satellites=8, angle=26.1100, fixquality=1
$GPRMC,183414.400,A,4305.1495,N,07740.8738,W,0.02,210.66,030319,,,A*71
$GPGGA,183414.600,4305.1495,N,07740.8738,W,1,08,1.03,154.4,M,-34.4,M,,*58
lng=-77.681236, lat=43.085823, altitude=154.40, speed=0.02, satellites=8, angle=210.6600, fixquality=1
$GPRMC,183414.800,A,4305.1495,N,07740.8738,W,0.02,11.89,030319,,,A*4F
$GPGGA,183415.000,4305.1495,N,07740.8738,W,1,08,1.08,154.4,M,-34.4,M,,*54
lng=-77.681236, lat=43.085823, altitude=154.40, speed=0.02, satellites=8, angle=11.8900, fixquality=1
$GPRMC,183415.200,A,4305.1495,N,07740.8738,W,0.01,192.03,030319,,,A*7F
$GPGGA,183415.400,4305.1495,N,07740.8738,W,1,08,1.03,154.4,M,-34.4,M,,*5B
lng=-77.681236, lat=43.085823, altitude=154.40, speed=0.01, satellites=8, angle=192.0300, fixquality=1
$GPRMC,183415.600,A,4305.1495,N,07740.8738,W,0.02,337.67,030319,,,A*77
$GPGGA,183415.800,4305.1495,N,07740.8738,W,1,08,1.03,154.4,M,-34.4,M,,*57
lng=-77.681236, lat=43.085823, altitude=154.40, speed=0.02, satellites=8, angle=337.6700, fixquality=1
$GPRMC,183416.000,A,4305.1495,N,07740.8738,W,0.02,87.55,030319,,,A*4B
$GPGGA,183416.200,4305.1495,N,07740.8738,W,1,08,1.03,154.4,M,-34.4,M,,*5E
lng=-77.681236, lat=43.085823, altitude=154.40, speed=0.02, satellites=8, angle=87.5500, fixquality=1
$GPRMC,183416.400,A,4305.1495,N,07740.8738,W,0.01,99.11,030319,,,A*43
$GPGGA,183416.600,4305.1495,N,07740.8738,W,1,08,1.03,154.4,M,-34.4,M,,*5A
lng=-77.681236, lat=43.085823, altitude=154.40, speed=0.01, satellites=8, angle=99.1100, fixquality=1
$GPRMC,183416.800,A,4305.1495,N,07740.8738,W,0.01,16.51,030319,,,A*4C
$GPGGA,183417.000,4305.1495,N,07740.8738,W,1,08,1.03,154.4,M,-34.4,M,,*5D
lng=-77.681236, lat=43.085823, altitude=154.40, speed=0.01, satellites=8, angle=16.5100, fixquality=1
$GPRMC,183417.200,A,4305.1495,N,07740.8738,W,0.02,225.15,030319,,,A*76
$GPGGA,183417.400,4305.1495,N,07740.8738,W,1,08,1.03,154.4,M,-34.4,M,,*59
lng=-77.681236, lat=43.085823, altitude=154.40, speed=0.02, satellites=8, angle=225.1500, fixquality=1
$GPRMC,183417.600,A,4305.1495,N,07740.8738,W,0.01,179.65,030319,,,A*7C
$GPGGA,183417.800,4305.1495,N,07740.8738,W,1,08,1.03,154.4,M,-34.4,M,,*55
lng=-77.681236, lat=43.085823, altitude=154.40, speed=0.01, satellites=8, angle=179.6500, fixquality=1
$GPRMC,183418.000,A,4305.1495,N,07740.8738,W,0.02,29.15,030319,,,A*45
$GPGGA,183418.200,4305.1495,N,07740.8738,W,1,08,1.03,154.4,M,-34.4,M,,*50
lng=-77.681236, lat=43.085823, altitude=154.40, speed=0.02, satellites=8, angle=29.1500, fixquality=1
$GPRMC,183418.400,A,4305.1495,N,07740.8738,W,0.01,194.96,030319,,,A*7E
$GPGGA,183418.600,4305.1495,N,07740.8738,W,1,08,1.03,154.4,M,-34.4,M,,*54
lng=-77.681236, lat=43.085823, altitude=154.40, speed=0.01, satellites=8, angle=194.9600, fixquality=1
$GPRMC,183418.800,A,4305.1495,N,07740.8738,W,0.02,36.66,030319,,,A*47
$GPGGA,183419.000,4305.1495,N,07740.8738,W,1,08,1.03,154.4,M,-34.4,M,,*53
lng=-77.681236, lat=43.085823, altitude=154.40, speed=0.02, satellites=8, angle=36.6600, fixquality=1
$GPRMC,183419.200,A,4305.1495,N,07740.8738,W,0.02,25.78,030319,,,A*41
$GPGGA,183419.400,4305.1495,N,07740.8738,W,1,08,1.03,154.4,M,-34.4,M,,*57
lng=-77.681236, lat=43.085823, altitude=154.40, speed=0.02, satellites=8, angle=25.7800, fixquality=1
$GPRMC,183419.600,A,4305.1495,N,07740.8738,W,0.04,192.33,030319,,,A*71
$GPGGA,183419.800,4305.1495,N,07740.8738,W,1,08,1.03,154.4,M,-34.4,M,,*5B
lng=-77.681236, lat=43.085823, altitude=154.40, speed=0.04, satellites=8, angle=192.3300, fixquality=1
$GPRMC,183420.000,A,4305.1495,N,07740.8738,W,0.03,18.61,030319,,,A*4E
$GPGGA,183420.200,4305.1495,N,07740.8738,W,1,08,1.03,154.4,M,-34.4,M,,*5B
lng=-77.681236, lat=43.085823, altitude=154.40, speed=0.03, satellites=8, angle=18.6100, fixquality=1
$GPRMC,183420.400,A,4305.1495,N,07740.8738,W,0.01,91.71,030319,,,A*48
$GPGGA,183420.600,4305.1495,N,07740.8738,W,1,08,1.03,154.4,M,-34.4,M,,*5F
lng=-77.681236, lat=43.085823, altitude=154.40, speed=0.01, satellites=8, angle=91.7100, fixquality=1
$GPRMC,183420.800,A,4305.1495,N,07740.8738,W,0.01,335.27,030319,,,A*7A
$GPGGA,183421.000,4305.1495,N,07740.8738,W,1,08,1.03,154.4,M,-34.4,M,,*58
lng=-77.681236, lat=43.085823, altitude=154.40, speed=0.01, satellites=8, angle=335.2700, fixquality=1
$GPRMC,183421.200,A,4305.1495,N,07740.8738,W,0.01,0.90,030319,,,A*78
$GPGGA,183421.400,4305.1495,N,07740.8738,W,1,08,1.08,154.4,M,-34.4,M,,*57
lng=-77.681236, lat=43.085823, altitude=154.40, speed=0.01, satellites=8, angle=0.9000, fixquality=1
$GPRMC,183421.600,A,4305.1495,N,07740.8738,W,0.04,216.02,030319,,,A*77
$GPGGA,183421.800,4305.1495,N,07740.8738,W,1,08,1.03,154.4,M,-34.4,M,,*50
lng=-77.681236, lat=43.085823, altitude=154.40, speed=0.04, satellites=8, angle=216.0200, fixquality=1
$GPRMC,183422.000,A,4305.1495,N,07740.8738,W,0.02,43.67,030319,,,A*45
$GPGGA,183422.200,4305.1495,N,07740.8738,W,1,08,1.03,154.4,M,-34.4,M,,*59
lng=-77.681236, lat=43.085823, altitude=154.40, speed=0.02, satellites=8, angle=43.6700, fixquality=1
$GPRMC,183422.400,A,4305.1495,N,07740.8738,W,0.04,19.24,030319,,,A*4F
$GPGGA,183422.600,4305.1495,N,07740.8738,W,1,08,1.03,154.4,M,-34.4,M,,*5D
lng=-77.681236, lat=43.085823, altitude=154.40, speed=0.04, satellites=8, angle=19.2400, fixquality=1
$GPRMC,183422.800,A,4305.1495,N,07740.8738,W,0.03,223.10,030319,,,A*78
$GPGGA,183423.000,4305.1495,N,07740.8738,W,1,08,1.03,154.4,M,-34.4,M,,*5A
lng=-77.681236, lat=43.085823, altitude=154.40, speed=0.03, satellites=8, angle=223.1000, fixquality=1
$GPRMC,183423.200,A,4305.1495,N,07740.8738,W,0.02,260.67,030319,,,A*75
$GPGGA,183423.400,4305.1495,N,07740.8738,W,1,08,1.08,154.4,M,-34.4,M,,*55
lng=-77.681236, lat=43.085823, altitude=154.40, speed=0.02, satellites=8, angle=260.6700, fixquality=1
$GPRMC,183423.600,A,4305.1495,N,07740.8738,W,0.02,255.84,030319,,,A*7A
$GPGGA,183423.800,4305.1495,N,07740.8738,W,1,08,1.08,154.4,M,-34.4,M,,*59
lng=-77.681236, lat=43.085823, altitude=154.40, speed=0.02, satellites=8, angle=255.8400, fixquality=1
$GPRMC,183424.000,A,4305.1495,N,07740.8738,W,0.00,290.45,030319,,,A*7D
$GPGGA,183424.200,4305.1495,N,07740.8738,W,1,08,1.08,154.4,M,-34.4,M,,*54
lng=-77.681236, lat=43.085823, altitude=154.40, speed=0.00, satellites=8, angle=290.4500, fixquality=1
$GPRMC,183424.400,A,4305.1495,N,07740.8738,W,0.01,25.87,030319,,,A*4A
$GPGGA,183424.600,4305.1495,N,07740.8738,W,1,08,1.08,154.4,M,-34.4,M,,*50
lng=-77.681236, lat=43.085823, altitude=154.40, speed=0.01, satellites=8, angle=25.8700, fixquality=1
$GPRMC,183424.800,A,4305.1495,N,07740.8738,W,0.01,133.77,030319,,,A*7F
$GPGGA,183425.000,4305.1495,N,07740.8738,W,1,08,1.08,154.4,M,-34.4,M,,*57
lng=-77.681236, lat=43.085823, altitude=154.40, speed=0.01, satellites=8, angle=133.7700, fixquality=1
$GPRMC,183425.200,A,4305.1495,N,07740.8738,W,0.00,301.48,030319,,,A*7A
$GPGGA,183425.400,4305.1495,N,07740.8738,W,1,08,1.08,154.4,M,-34.4,M,,*53
lng=-77.681236, lat=43.085823, altitude=154.40, speed=0.00, satellites=8, angle=301.4800, fixquality=1
$GPRMC,183425.600,A,4305.1495,N,07740.8738,W,0.01,355.15,030319,,,A*76
$GPGGA,183425.800,4305.1495,N,07740.8738,W,1,08,1.08,154.4,M,-34.4,M,,*5F
lng=-77.681236, lat=43.085823, altitude=154.40, speed=0.01, satellites=8, angle=355.1500, fixquality=1
$GPRMC,183426.000,A,4305.1495,N,07740.8738,W,0.00,302.68,030319,,,A*7A
$GPGGA,183426.200,4305.1495,N,07740.8738,W,1,08,1.08,154.4,M,-34.4,M,,*56
lng=-77.681236, lat=43.085823, altitude=154.40, speed=0.00, satellites=8, angle=302.6800, fixquality=1
$GPRMC,183426.400,A,4305.1495,N,07740.8738,W,0.00,313.55,030319,,,A*70
$GPGGA,183426.600,4305.1495,N,07740.8738,W,1,08,1.08,154.4,M,-34.4,M,,*52
lng=-77.681236, lat=43.085823, altitude=154.40, speed=0.00, satellites=8, angle=313.5500, fixquality=1
$GPRMC,183426.800,A,4305.1495,N,07740.8738,W,0.00,7.93,030319,,,A*70
$GPGGA,183427.000,4305.1495,N,07740.8738,W,1,08,1.08,154.4,M,-34.4,M,,*55
lng=-77.681236, lat=43.085823, altitude=154.40, speed=0.00, satellites=8, angle=7.9300, fixquality=1
$GPRMC,183427.200,A,4305.1495,N,07740.8738,W,0.01,171.60,030319,,,A*76
$GPGGA,183427.400,4305.1495,N,07740.8738,W,1,08,1.08,154.4,M,-34.4,M,,*51
lng=-77.681236, lat=43.085823, altitude=154.40, speed=0.01, satellites=8, angle=171.6000, fixquality=1
$GPRMC,183427.600,A,4305.1495,N,07740.8738,W,0.01,322.79,030319,,,A*7E
$GPGGA,183427.800,4305.1495,N,07740.8738,W,1,08,1.08,154.4,M,-34.4,M,,*5D
lng=-77.681236, lat=43.085823, altitude=154.40, speed=0.01, satellites=8, angle=322.7900, fixquality=1
$GPRMC,183428.000,A,4305.1495,N,07740.8738,W,0.00,194.20,030319,,,A*75
$GPGGA,183428.200,4305.1495,N,07740.8738,W,1,08,1.08,154.5,M,-34.4,M,,*59
lng=-77.681236, lat=43.085823, altitude=154.40, speed=0.00, satellites=8, angle=194.2000, fixquality=1
$GPRMC,183428.400,A,4305.1495,N,07740.8738,W,0.00,322.17,030319,,,A*7A
$GPGGA,183428.600,4305.1495,N,07740.8738,W,1,08,1.08,154.5,M,-34.4,M,,*5D
lng=-77.681236, lat=43.085823, altitude=154.50, speed=0.00, satellites=8, angle=322.1700, fixquality=1
$GPRMC,183428.800,A,4305.1495,N,07740.8738,W,0.00,215.71,030319,,,A*73
$GPGGA,183429.000,4305.1495,N,07740.8738,W,1,08,1.08,154.5,M,-34.4,M,,*5A
lng=-77.681236, lat=43.085823, altitude=154.50, speed=0.00, satellites=8, angle=215.7100, fixquality=1
$GPRMC,183429.200,A,4305.1495,N,07740.8738,W,0.00,192.53,030319,,,A*74
$GPGGA,183429.400,4305.1495,N,07740.8738,W,1,08,1.08,154.5,M,-34.4,M,,*5E
lng=-77.681236, lat=43.085823, altitude=154.50, speed=0.00, satellites=8, angle=192.5300, fixquality=1
$GPRMC,183429.600,A,4305.1495,N,07740.8738,W,0.00,119.19,030319,,,A*7D
$GPGGA,183429.800,4305.1495,N,07740.8738,W,1,08,1.08,154.5,M,-34.4,M,,*52
lng=-77.681236, lat=43.085823, altitude=154.50, speed=0.00, satellites=8, angle=119.1900, fixquality=1
$GPRMC,183430.000,A,4305.1495,N,07740.8738,W,0.00,179.49,030319,,,A*70
$GPGGA,183430.200,4305.1495,N,07740.8738,W,1,08,1.08,154.5,M,-34.4,M,,*50
lng=-77.681236, lat=43.085823, altitude=154.50, speed=0.00, satellites=8, angle=179.4900, fixquality=1
$GPRMC,183430.400,A,4305.1495,N,07740.8738,W,0.01,123.90,030319,,,A*7E
$GPGGA,183430.600,4305.1495,N,07740.8738,W,1,08,1.08,154.5,M,-34.4,M,,*54
lng=-77.681236, lat=43.085823, altitude=154.50, speed=0.01, satellites=8, angle=123.9000, fixquality=1
$GPRMC,183430.800,A,4305.1495,N,07740.8738,W,0.01,321.08,030319,,,A*73
$GPGGA,183431.000,4305.1495,N,07740.8738,W,1,08,1.08,154.5,M,-34.4,M,,*53
lng=-77.681236, lat=43.085823, altitude=154.50, speed=0.01, satellites=8, angle=321.0800, fixquality=1
$GPRMC,183431.200,A,4305.1495,N,07740.8738,W,0.00,158.55,030319,,,A*7D
$GPGGA,183431.400,4305.1495,N,07740.8738,W,1,08,1.08,154.5,M,-34.4,M,,*57
lng=-77.681236, lat=43.085823, altitude=154.50, speed=0.00, satellites=8, angle=158.5500, fixquality=1
$GPRMC,183431.600,A,4305.1495,N,07740.8738,W,0.00,0.00,030319,,,A*75
$GPGGA,183431.800,4305.1495,N,07740.8738,W,1,08,1.08,154.5,M,-34.4,M,,*5B
lng=-77.681236, lat=43.085823, altitude=154.50, speed=0.00, satellites=8, angle=0.0000, fixquality=1
$GPRMC,183432.000,A,4305.1495,N,07740.8738,W,0.00,149.65,030319,,,A*7F
$GPGGA,183432.200,4305.1495,N,07740.8738,W,1,08,1.08,154.5,M,-34.4,M,,*52
lng=-77.681236, lat=43.085823, altitude=154.50, speed=0.00, satellites=8, angle=149.6500, fixquality=1
$GPRMC,183432.400,A,4305.1495,N,07740.8738,W,0.00,223.11,030319,,,A*77
$GPGGA,183432.600,4305.1495,N,07740.8738,W,1,08,1.08,154.5,M,-34.4,M,,*56
lng=-77.681236, lat=43.085823, altitude=154.50, speed=0.00, satellites=8, angle=223.1100, fixquality=1
$GPRMC,183432.800,A,4305.1495,N,07740.8738,W,0.00,165.31,030319,,,A*78
$GPGGA,183433.000,4305.1495,N,07740.8738,W,1,08,1.08,154.5,M,-34.4,M,,*51
lng=-77.681236, lat=43.085823, altitude=154.50, speed=0.00, satellites=8, angle=165.3100, fixquality=1
$GPRMC,183433.200,A,4305.1495,N,07740.8738,W,0.01,182.80,030319,,,A*71
$GPGGA,183433.400,4305.1495,N,07740.8738,W,1,08,1.08,154.5,M,-34.4,M,,*55
lng=-77.681236, lat=43.085823, altitude=154.50, speed=0.01, satellites=8, angle=182.8000, fixquality=1
$GPRMC,183433.600,A,4305.1495,N,07740.8738,W,0.01,2.69,030319,,,A*7B
$GPGGA,183433.800,4305.1495,N,07740.8738,W,1,08,1.08,154.5,M,-34.4,M,,*59
lng=-77.681236, lat=43.085823, altitude=154.50, speed=0.01, satellites=8, angle=2.6900, fixquality=1
$GPRMC,183434.000,A,4305.1495,N,07740.8738,W,0.00,170.06,030319,,,A*76
$GPGGA,183434.200,4305.1495,N,07740.8738,W,1,08,1.08,154.5,M,-34.4,M,,*54
lng=-77.681236, lat=43.085823, altitude=154.50, speed=0.00, satellites=8, angle=170.0600, fixquality=1
$GPRMC,183434.400,A,4305.1496,N,07740.8738,W,0.00,187.51,030319,,,A*7B
$GPGGA,183434.600,4305.1496,N,07740.8738,W,1,08,1.08,154.5,M,-34.4,M,,*53
lng=-77.681236, lat=43.085823, altitude=154.50, speed=0.00, satellites=8, angle=187.5100, fixquality=1
$GPRMC,183434.800,A,4305.1496,N,07740.8738,W,0.00,0.00,030319,,,A*7D
$GPGGA,183435.000,4305.1496,N,07740.8738,W,1,08,1.08,154.5,M,-34.4,M,,*54
lng=-77.681236, lat=43.085823, altitude=154.50, speed=0.00, satellites=8, angle=0.0000, fixquality=1
$GPRMC,183435.200,A,4305.1496,N,07740.8738,W,0.00,158.64,030319,,,A*78
$GPGGA,183435.400,4305.1496,N,07740.8738,W,1,08,1.08,154.5,M,-34.4,M,,*50
lng=-77.681236, lat=43.085823, altitude=154.50, speed=0.00, satellites=8, angle=158.6400, fixquality=1
$GPRMC,183435.600,A,4305.1496,N,07740.8738,W,0.00,326.92,030319,,,A*7E
$GPGGA,183435.800,4305.1496,N,07740.8738,W,1,08,1.08,154.5,M,-34.4,M,,*5C
lng=-77.681236, lat=43.085823, altitude=154.50, speed=0.00, satellites=8, angle=326.9200, fixquality=1
$GPRMC,183436.000,A,4305.1496,N,07740.8738,W,0.01,310.68,030319,,,A*7A
$GPGGA,183436.200,4305.1496,N,07740.8738,W,1,08,1.08,154.5,M,-34.4,M,,*55
lng=-77.681236, lat=43.085823, altitude=154.50, speed=0.01, satellites=8, angle=310.6800, fixquality=1
$GPRMC,183436.400,A,4305.1496,N,07740.8738,W,0.00,337.41,030319,,,A*71
$GPGGA,183436.600,4305.1496,N,07740.8738,W,1,08,1.08,154.5,M,-34.4,M,,*51
lng=-77.681236, lat=43.085823, altitude=154.50, speed=0.00, satellites=8, angle=337.4100, fixquality=1
$GPRMC,183436.800,A,4305.1496,N,07740.8738,W,0.00,308.80,030319,,,A*7C
$GPGGA,183437.000,4305.1496,N,07740.8738,W,1,08,1.08,154.5,M,-34.4,M,,*56
lng=-77.681236, lat=43.085823, altitude=154.50, speed=0.00, satellites=8, angle=308.8000, fixquality=1
$GPRMC,183437.200,A,4305.1496,N,07740.8738,W,0.01,214.76,030319,,,A*73
$GPGGA,183437.400,4305.1496,N,07740.8738,W,1,08,1.08,154.5,M,-34.4,M,,*52
lng=-77.681236, lat=43.085823, altitude=154.50, speed=0.01, satellites=8, angle=214.7600, fixquality=1
$GPRMC,183437.600,A,4305.1496,N,07740.8738,W,0.00,28.37,030319,,,A*4E
$GPGGA,183437.800,4305.1496,N,07740.8738,W,1,08,1.08,154.5,M,-34.4,M,,*5E
lng=-77.681236, lat=43.085823, altitude=154.50, speed=0.00, satellites=8, angle=28.3700, fixquality=1
$GPRMC,183438.000,A,4305.1496,N,07740.8738,W,0.00,217.67,030319,,,A*7C
$GPGGA,183438.200,4305.1496,N,07740.8738,W,1,08,1.08,154.5,M,-34.4,M,,*5B
lng=-77.681236, lat=43.085823, altitude=154.50, speed=0.00, satellites=8, angle=217.6700, fixquality=1
$GPRMC,183438.400,A,4305.1496,N,07740.8738,W,0.01,94.21,030319,,,A*42
$GPGGA,183438.600,4305.1496,N,07740.8738,W,1,08,1.08,154.5,M,-34.4,M,,*5F
lng=-77.681236, lat=43.085823, altitude=154.50, speed=0.01, satellites=8, angle=94.2100, fixquality=1
$GPRMC,183438.800,A,4305.1496,N,07740.8738,W,0.01,73.43,030319,,,A*43
$GPGGA,183439.000,4305.1496,N,07740.8738,W,1,08,1.08,154.5,M,-34.4,M,,*58
lng=-77.681236, lat=43.085823, altitude=154.50, speed=0.01, satellites=8, angle=73.4300, fixquality=1
$GPRMC,183439.200,A,4305.1496,N,07740.8738,W,0.01,98.40,030319,,,A*4E
$GPGGA,183439.400,4305.1496,N,07740.8738,W,1,08,1.08,154.5,M,-34.4,M,,*5C
lng=-77.681236, lat=43.085823, altitude=154.50, speed=0.01, satellites=8, angle=98.4000, fixquality=1
$GPRMC,183439.600,A,4305.1496,N,07740.8738,W,0.00,2.28,030319,,,A*76
$GPGGA,183439.800,4305.1496,N,07740.8738,W,1,08,1.08,154.5,M,-34.4,M,,*50
lng=-77.681236, lat=43.085823, altitude=154.50, speed=0.00, satellites=8, angle=2.2800, fixquality=1
$GPRMC,183440.000,A,4305.1496,N,07740.8738,W,0.01,127.86,030319,,,A*7D
$GPGGA,183440.200,4305.1496,N,07740.8738,W,1,08,1.08,154.5,M,-34.4,M,,*54
lng=-77.681236, lat=43.085823, altitude=154.50, speed=0.01, satellites=8, angle=127.8600, fixquality=1
$GPRMC,183440.400,A,4305.1496,N,07740.8738,W,0.01,347.99,030319,,,A*73
$GPGGA,183440.600,4305.1496,N,07740.8738,W,1,08,1.08,154.5,M,-34.4,M,,*50
lng=-77.681236, lat=43.085823, altitude=154.50, speed=0.01, satellites=8, angle=347.9900, fixquality=1
$GPRMC,183440.800,A,4305.1496,N,07740.8738,W,0.00,0.00,030319,,,A*7E
$GPGGA,183441.000,4305.1496,N,07740.8738,W,1,08,1.08,154.5,M,-34.4,M,,*57
lng=-77.681236, lat=43.085823, altitude=154.50, speed=0.00, satellites=8, angle=0.0000, fixquality=1
$GPRMC,183441.200,A,4305.1496,N,07740.8738,W,0.00,29.52,030319,,,A*49
$GPGGA,183441.400,4305.1496,N,07740.8738,W,2,08,1.08,154.5,M,-34.4,M,0000,0000*50
lng=-77.681236, lat=43.085823, altitude=154.50, speed=0.00, satellites=8, angle=29.5200, fixquality=1
$GPRMC,183441.600,A,4305.1496,N,07740.8738,W,0.00,157.29,030319,,,D*7C
$GPGGA,183441.800,4305.1496,N,07740.8738,W,2,08,1.08,154.6,M,-34.4,M,0000,0000*5F
lng=-77.681236, lat=43.085823, altitude=154.50, speed=0.00, satellites=8, angle=157.2900, fixquality=2
$GPRMC,183442.000,A,4305.1496,N,07740.8738,W,0.00,222.05,030319,,,D*76
$GPGGA,183442.200,4305.1497,N,07740.8738,W,2,08,1.08,154.6,M,-34.4,M,0000,0000*57
lng=-77.681236, lat=43.085823, altitude=154.60, speed=0.00, satellites=8, angle=222.0500, fixquality=2
$GPRMC,183442.400,A,4305.1497,N,07740.8738,W,0.00,230.83,030319,,,D*7E
$GPGGA,183442.600,4305.1497,N,07740.8738,W,2,08,1.08,154.7,M,-34.4,M,0000,0000*52
lng=-77.681236, lat=43.085830, altitude=154.60, speed=0.00, satellites=8, angle=230.8300, fixquality=2
$GPRMC,183442.800,A,4305.1497,N,07740.8738,W,0.00,44.75,030319,,,D*4A
$GPGGA,183443.000,4305.1497,N,07740.8738,W,2,08,1.08,154.8,M,-34.4,M,0000,0000*5A
lng=-77.681236, lat=43.085830, altitude=154.70, speed=0.00, satellites=8, angle=44.7500, fixquality=2
$GPRMC,183443.200,A,4305.1498,N,07740.8738,W,0.00,77.00,030319,,,D*4C
$GPGGA,183443.400,4305.1498,N,07740.8737,W,2,08,1.08,154.8,M,-34.4,M,0000,0000*5E
lng=-77.681236, lat=43.085830, altitude=154.80, speed=0.00, satellites=8, angle=77.0000, fixquality=2
$GPRMC,183443.600,A,4305.1498,N,07740.8737,W,0.01,51.29,030319,,,D*49
$GPGGA,183443.800,4305.1498,N,07740.8737,W,2,08,1.08,154.9,M,-34.4,M,0000,0000*53
lng=-77.681228, lat=43.085830, altitude=154.80, speed=0.01, satellites=8, angle=51.2900, fixquality=2
$GPRMC,183444.000,A,4305.1498,N,07740.8737,W,0.01,42.96,030319,,,D*4E
$GPGGA,183444.200,4305.1498,N,07740.8737,W,2,08,1.08,154.9,M,-34.4,M,0000,0000*5E
lng=-77.681228, lat=43.085830, altitude=154.90, speed=0.01, satellites=8, angle=42.9600, fixquality=2
$GPRMC,183444.400,A,4305.1499,N,07740.8737,W,0.01,63.61,030319,,,D*40
$GPGGA,183444.600,4305.1499,N,07740.8737,W,2,08,1.08,155.0,M,-34.4,M,0000,0000*53
lng=-77.681228, lat=43.085830, altitude=154.90, speed=0.01, satellites=8, angle=63.6100, fixquality=2
$GPRMC,183444.800,A,4305.1499,N,07740.8737,W,0.01,51.82,030319,,,D*40
$GPGGA,183445.000,4305.1499,N,07740.8737,W,2,08,1.08,155.1,M,-34.4,M,0000,0000*55
lng=-77.681228, lat=43.085830, altitude=155.00, speed=0.01, satellites=8, angle=51.8200, fixquality=2
$GPRMC,183445.200,A,4305.1499,N,07740.8736,W,0.01,58.68,030319,,,D*47
$GPGGA,183445.400,4305.1499,N,07740.8736,W,2,08,1.08,155.1,M,-34.4,M,0000,0000*50
lng=-77.681228, lat=43.085830, altitude=155.10, speed=0.01, satellites=8, angle=58.6800, fixquality=2
$GPRMC,183445.600,A,4305.1499,N,07740.8736,W,0.01,43.72,030319,,,D*42
$GPGGA,183445.800,4305.1500,N,07740.8736,W,2,08,1.08,155.2,M,-34.4,M,0000,0000*5E
lng=-77.681228, lat=43.085830, altitude=155.10, speed=0.01, satellites=8, angle=43.7200, fixquality=2
$GPRMC,183446.000,A,4305.1500,N,07740.8736,W,0.01,5.01,030319,,,D*70
$GPGGA,183446.200,4305.1500,N,07740.8736,W,2,08,1.08,155.2,M,-34.4,M,0000,0000*57
lng=-77.681228, lat=43.085830, altitude=155.20, speed=0.01, satellites=8, angle=5.0100, fixquality=2
$GPRMC,183446.400,A,4305.1500,N,07740.8736,W,0.00,333.82,030319,,,D*78
$GPGGA,183446.600,4305.1500,N,07740.8736,W,2,08,1.08,155.3,M,-34.4,M,0000,0000*52
lng=-77.681228, lat=43.085830, altitude=155.20, speed=0.00, satellites=8, angle=333.8200, fixquality=2
$GPRMC,183446.800,A,4305.1500,N,07740.8735,W,0.01,294.17,030319,,,D*76
$GPGGA,183447.000,4305.1500,N,07740.8735,W,2,08,1.08,155.3,M,-34.4,M,0000,0000*56
lng=-77.681228, lat=43.085830, altitude=155.30, speed=0.01, satellites=8, angle=294.1700, fixquality=2
$GPRMC,183447.200,A,4305.1500,N,07740.8735,W,0.01,257.28,030319,,,D*7E
$GPGGA,183447.400,4305.1500,N,07740.8735,W,2,08,1.08,155.5,M,-34.4,M,0000,0000*54
lng=-77.681228, lat=43.085830, altitude=155.30, speed=0.01, satellites=8, angle=257.2800, fixquality=2
$GPRMC,183447.600,A,4305.1500,N,07740.8734,W,0.01,257.34,030319,,,D*76
$GPGGA,183447.800,4305.1500,N,07740.8734,W,2,08,1.08,155.6,M,-34.4,M,0000,0000*5A
lng=-77.681228, lat=43.085830, altitude=155.50, speed=0.01, satellites=8, angle=257.3400, fixquality=2
$GPRMC,183448.000,A,4305.1500,N,07740.8734,W,0.01,250.37,030319,,,D*7B
$GPGGA,183448.200,4305.1500,N,07740.8733,W,2,08,1.08,155.7,M,-34.4,M,0000,0000*59
lng=-77.681228, lat=43.085830, altitude=155.60, speed=0.01, satellites=8, angle=250.3700, fixquality=2
$GPRMC,183448.400,A,4305.1500,N,07740.8733,W,0.02,232.79,030319,,,D*75
$GPGGA,183448.600,4305.1500,N,07740.8732,W,2,08,1.08,155.8,M,-34.4,M,0000,0000*53
lng=-77.681228, lat=43.085830, altitude=155.70, speed=0.02, satellites=8, angle=232.7900, fixquality=2
$GPRMC,183448.800,A,4305.1500,N,07740.8732,W,0.02,239.99,030319,,,D*7D
$GPGGA,183449.000,4305.1500,N,07740.8732,W,2,08,1.08,155.9,M,-34.4,M,0000,0000*55
lng=-77.681221, lat=43.085830, altitude=155.80, speed=0.02, satellites=8, angle=239.9900, fixquality=2
$GPRMC,183449.200,A,4305.1500,N,07740.8731,W,0.02,236.20,030319,,,D*78
$GPGGA,183449.400,4305.1500,N,07740.8731,W,2,08,1.08,156.0,M,-34.4,M,0000,0000*58
lng=-77.681221, lat=43.085830, altitude=155.90, speed=0.02, satellites=8, angle=236.2000, fixquality=2
$GPRMC,183449.600,A,4305.1499,N,07740.8731,W,0.02,232.80,030319,,,D*73
$GPGGA,183449.800,4305.1499,N,07740.8730,W,2,08,1.08,156.1,M,-34.4,M,0000,0000*55
lng=-77.681221, lat=43.085830, altitude=156.00, speed=0.02, satellites=8, angle=232.8000, fixquality=2
$GPRMC,183450.000,A,4305.1499,N,07740.8730,W,0.03,229.79,030319,,,D*71
$GPGGA,183450.200,4305.1499,N,07740.8730,W,2,08,1.08,156.2,M,-34.4,M,0000,0000*54
lng=-77.681221, lat=43.085830, altitude=156.10, speed=0.03, satellites=8, angle=229.7900, fixquality=2
$GPRMC,183450.400,A,4305.1499,N,07740.8730,W,0.03,228.20,030319,,,D*78
$GPGGA,183450.600,4305.1499,N,07740.8729,W,2,08,1.08,156.3,M,-34.4,M,0000,0000*59
lng=-77.681221, lat=43.085830, altitude=156.20, speed=0.03, satellites=8, angle=228.2000, fixquality=2
$GPRMC,183450.800,A,4305.1499,N,07740.8729,W,0.02,232.99,030319,,,D*74
$GPGGA,183451.000,4305.1499,N,07740.8729,W,2,08,1.08,156.4,M,-34.4,M,0000,0000*59
lng=-77.681221, lat=43.085830, altitude=156.30, speed=0.02, satellites=8, angle=232.9900, fixquality=2
$GPRMC,183451.200,A,4305.1499,N,07740.8729,W,0.02,228.72,030319,,,D*71
$GPGGA,183451.400,4305.1499,N,07740.8728,W,2,08,1.08,156.5,M,-34.4,M,0000,0000*5D
lng=-77.681221, lat=43.085830, altitude=156.40, speed=0.02, satellites=8, angle=228.7200, fixquality=2
$GPRMC,183451.600,A,4305.1498,N,07740.8728,W,0.00,185.41,030319,,,D*73
$GPGGA,183451.800,4305.1498,N,07740.8728,W,2,08,1.08,156.6,M,-34.4,M,0000,0000*53
lng=-77.681205, lat=43.085830, altitude=156.50, speed=0.00, satellites=8, angle=185.4100, fixquality=2
$GPRMC,183452.000,A,4305.1498,N,07740.8728,W,0.00,0.00,030319,,,D*7F
$GPGGA,183452.200,4305.1498,N,07740.8727,W,2,08,1.08,156.7,M,-34.4,M,0000,0000*54
lng=-77.681205, lat=43.085830, altitude=156.60, speed=0.00, satellites=8, angle=0.0000, fixquality=2
$GPRMC,183452.400,A,4305.1498,N,07740.8727,W,0.00,40.68,030319,,,D*4E
$GPGGA,183452.600,4305.1498,N,07740.8727,W,2,08,1.08,156.7,M,-34.4,M,0000,0000*50
lng=-77.681205, lat=43.085830, altitude=156.70, speed=0.00, satellites=8, angle=40.6800, fixquality=2
$GPRMC,183452.800,A,4305.1498,N,07740.8727,W,0.00,78.93,030319,,,D*4D
$GPGGA,183453.000,4305.1498,N,07740.8727,W,2,08,1.08,156.8,M,-34.4,M,0000,0000*58
lng=-77.681205, lat=43.085830, altitude=156.70, speed=0.00, satellites=8, angle=78.9300, fixquality=2
$GPRMC,183453.200,A,4305.1498,N,07740.8726,W,0.00,46.40,030319,,,D*44
$GPGGA,183453.400,4305.1498,N,07740.8726,W,2,08,1.08,156.9,M,-34.4,M,0000,0000*5C
lng=-77.681205, lat=43.085830, altitude=156.80, speed=0.00, satellites=8, angle=46.4000, fixquality=2
$GPRMC,183453.600,A,4305.1497,N,07740.8726,W,0.03,169.78,030319,,,D*7B
$GPGGA,183453.800,4305.1497,N,07740.8726,W,2,08,1.08,156.9,M,-34.4,M,0000,0000*5F
lng=-77.681205, lat=43.085830, altitude=156.90, speed=0.03, satellites=8, angle=169.7800, fixquality=2
$GPRMC,183454.000,A,4305.1496,N,07740.8726,W,0.09,171.62,030319,,,D*73
$GPGGA,183454.200,4305.1496,N,07740.8726,W,2,08,1.08,157.0,M,-34.4,M,0000,0000*5B
lng=-77.681205, lat=43.085823, altitude=156.90, speed=0.09, satellites=8, angle=171.6200, fixquality=2
$GPRMC,183454.400,A,4305.1495,N,07740.8725,W,0.05,137.64,030319,,,D*7F
$GPGGA,183454.600,4305.1495,N,07740.8725,W,2,08,1.08,157.1,M,-34.4,M,0000,0000*5E
lng=-77.681205, lat=43.085823, altitude=157.00, speed=0.05, satellites=8, angle=137.6400, fixquality=2
$GPRMC,183454.800,A,4305.1495,N,07740.8725,W,0.38,119.39,030319,,,D*79
$GPGGA,183455.000,4305.1494,N,07740.8724,W,2,08,1.03,157.2,M,-34.4,M,0000,0000*51
lng=-77.681205, lat=43.085823, altitude=157.10, speed=0.38, satellites=8, angle=119.3900, fixquality=2
$GPRMC,183455.200,A,4305.1493,N,07740.8723,W,2.76,152.17,030319,,,D*79
$GPGGA,183455.400,4305.1491,N,07740.8722,W,2,08,1.03,157.3,M,-34.4,M,0000,0000*57
lng=-77.681198, lat=43.085823, altitude=157.20, speed=2.76, satellites=8, angle=152.1700, fixquality=2
$GPRMC,183455.600,A,4305.1489,N,07740.8721,W,3.63,149.74,030319,,,D*7E
$GPGGA,183455.800,4305.1488,N,07740.8720,W,2,08,1.03,157.3,M,-34.4,M,0000,0000*51
lng=-77.681198, lat=43.085815, altitude=157.30, speed=3.63, satellites=8, angle=149.7400, fixquality=2
$GPRMC,183456.000,A,4305.1486,N,07740.8718,W,3.82,138.59,030319,,,D*78
$GPGGA,183456.200,4305.1484,N,07740.8716,W,2,08,1.03,157.4,M,-34.4,M,0000,0000*56
lng=-77.681190, lat=43.085807, altitude=157.30, speed=3.82, satellites=8, angle=138.5900, fixquality=2
$GPRMC,183456.400,A,4305.1483,N,07740.8713,W,3.59,128.58,030319,,,D*74
$GPGGA,183456.600,4305.1482,N,07740.8711,W,2,07,1.31,157.5,M,-34.4,M,0000,0000*5C
lng=-77.681182, lat=43.085807, altitude=157.40, speed=3.59, satellites=8, angle=128.5800, fixquality=2
$GPRMC,183456.800,A,4305.1481,N,07740.8709,W,3.26,118.18,030319,,,D*7E
$GPGGA,183457.000,4305.1480,N,07740.8707,W,2,08,1.03,157.6,M,-34.4,M,0000,0000*53
lng=-77.681182, lat=43.085800, altitude=157.50, speed=3.26, satellites=7, angle=118.1800, fixquality=2
$GPRMC,183457.200,A,4305.1479,N,07740.8705,W,2.93,105.52,030319,,,D*73
$GPGGA,183457.400,4305.1479,N,07740.8703,W,2,08,1.03,157.7,M,-34.4,M,0000,0000*54
lng=-77.681175, lat=43.085800, altitude=157.60, speed=2.93, satellites=8, angle=105.5200, fixquality=2
$GPRMC,183457.600,A,4305.1478,N,07740.8701,W,2.52,101.60,030319,,,D*7A
$GPGGA,183457.800,4305.1478,N,07740.8699,W,2,08,1.03,157.8,M,-34.4,M,0000,0000*54
lng=-77.681167, lat=43.085800, altitude=157.70, speed=2.52, satellites=8, angle=101.6000, fixquality=2
$GPRMC,183458.000,A,4305.1478,N,07740.8697,W,1.89,89.91,030319,,,D*47
$GPGGA,183458.200,4305.1478,N,07740.8696,W,2,08,1.03,157.8,M,-34.4,M,0000,0000*5E
lng=-77.681159, lat=43.085800, altitude=157.80, speed=1.89, satellites=8, angle=89.9100, fixquality=2
$GPRMC,183458.400,A,4305.1477,N,07740.8695,W,0.67,83.62,030319,,,D*49
$GPGGA,183458.600,4305.1477,N,07740.8695,W,2,08,1.03,157.9,M,-34.4,M,0000,0000*57
lng=-77.681159, lat=43.085792, altitude=157.80, speed=0.67, satellites=8, angle=83.6200, fixquality=2
$GPRMC,183458.800,A,4305.1477,N,07740.8695,W,0.59,274.12,030319,,,D*75
$GPGGA,183459.000,4305.1477,N,07740.8696,W,2,08,1.03,158.0,M,-34.4,M,0000,0000*55
lng=-77.681159, lat=43.085792, altitude=157.90, speed=0.59, satellites=8, angle=274.1200, fixquality=2
$GPRMC,183459.200,A,4305.1476,N,07740.8698,W,3.07,264.09,030319,,,D*71
$GPGGA,183459.400,4305.1475,N,07740.8701,W,2,08,1.03,158.2,M,-34.4,M,0000,0000*5E
lng=-77.681159, lat=43.085792, altitude=158.00, speed=3.07, satellites=8, angle=264.0900, fixquality=2
$GPRMC,183459.600,A,4305.1474,N,07740.8705,W,4.92,268.10,030319,,,D*7D
$GPGGA,183459.800,4305.1473,N,07740.8709,W,2,08,1.08,158.6,M,-34.4,M,0000,0000*53
lng=-77.681175, lat=43.085792, altitude=158.20, speed=4.92, satellites=8, angle=268.1000, fixquality=2
$GPRMC,183500.000,A,4305.1472,N,07740.8715,W,6.81,266.99,030319,,,D*7E
$GPGGA,183500.200,4305.1471,N,07740.8720,W,2,08,1.08,158.7,M,-34.4,M,0000,0000*5C
lng=-77.681190, lat=43.085781, altitude=158.60, speed=6.81, satellites=8, angle=266.9900, fixquality=2
$GPRMC,183500.400,A,4305.1469,N,07740.8727,W,8.21,264.48,030319,,,D*7B
$GPGGA,183500.600,4305.1468,N,07740.8733,W,2,08,1.08,158.8,M,-34.4,M,0000,0000*5D
lng=-77.681205, lat=43.085781, altitude=158.70, speed=8.21, satellites=8, angle=264.4800, fixquality=2
$GPRMC,183500.800,A,4305.1467,N,07740.8740,W,8.96,264.39,030319,,,D*72
$GPGGA,183501.000,4305.1466,N,07740.8747,W,2,08,1.08,159.0,M,-34.4,M,0000,0000*5E
lng=-77.681236, lat=43.085773, altitude=158.80, speed=8.96, satellites=8, angle=264.3900, fixquality=2
$GPRMC,183501.200,A,4305.1466,N,07740.8754,W,9.02,263.31,030319,,,D*7E
$GPGGA,183501.400,4305.1465,N,07740.8761,W,2,08,1.08,159.1,M,-34.4,M,0000,0000*5C
lng=-77.681259, lat=43.085773, altitude=159.00, speed=9.02, satellites=8, angle=263.3100, fixquality=2
$GPRMC,183501.600,A,4305.1464,N,07740.8768,W,8.92,264.00,030319,,,D*7A
$GPGGA,183501.800,4305.1463,N,07740.8775,W,2,08,1.08,159.3,M,-34.4,M,0000,0000*51
lng=-77.681282, lat=43.085773, altitude=159.10, speed=8.92, satellites=8, angle=264.0000, fixquality=2
$GPRMC,183502.000,A,4305.1463,N,07740.8782,W,8.77,272.73,030319,,,D*74
$GPGGA,183502.200,4305.1463,N,07740.8788,W,2,08,1.08,159.4,M,-34.4,M,0000,0000*5D
lng=-77.681304, lat=43.085773, altitude=159.30, speed=8.77, satellites=8, angle=272.7300, fixquality=2
$GPRMC,183502.400,A,4305.1464,N,07740.8795,W,8.55,279.06,030319,,,D*78
$GPGGA,183502.600,4305.1465,N,07740.8801,W,2,08,1.08,159.5,M,-34.4,M,0000,0000*50
lng=-77.681320, lat=43.085773, altitude=159.40, speed=8.55, satellites=8, angle=279.0600, fixquality=2
$GPRMC,183502.800,A,4305.1466,N,07740.8807,W,8.44,290.60,030319,,,D*75
$GPGGA,183503.000,4305.1468,N,07740.8813,W,2,08,1.08,159.6,M,-34.4,M,0000,0000*5A
lng=-77.681350, lat=43.085773, altitude=159.50, speed=8.44, satellites=8, angle=290.6000, fixquality=2
$GPRMC,183503.200,A,4305.1470,N,07740.8818,W,8.30,300.59,030319,,,D*76
$GPGGA,183503.400,4305.1473,N,07740.8824,W,2,08,1.08,159.6,M,-34.4,M,0000,0000*50
lng=-77.681365, lat=43.085781, altitude=159.60, speed=8.30, satellites=8, angle=300.5900, fixquality=2
$GPRMC,183503.600,A,4305.1476,N,07740.8829,W,8.55,312.77,030319,,,D*7A
$GPGGA,183503.800,4305.1480,N,07740.8833,W,2,08,1.08,159.7,M,-34.4,M,0000,0000*57
lng=-77.681381, lat=43.085792, altitude=159.60, speed=8.55, satellites=8, angle=312.7700, fixquality=2
$GPRMC,183504.000,A,4305.1484,N,07740.8838,W,9.26,323.33,030319,,,D*71
$GPGGA,183504.200,4305.1489,N,07740.8842,W,2,08,1.08,159.8,M,-34.4,M,0000,0000*5A
lng=-77.681396, lat=43.085807, altitude=159.70, speed=9.26, satellites=8, angle=323.3300, fixquality=2
$GPRMC,183504.400,A,4305.1494,N,07740.8845,W,10.14,334.74,030319,,,D*42
$GPGGA,183504.600,4305.1499,N,07740.8848,W,2,08,1.08,159.8,M,-34.4,M,0000,0000*55
lng=-77.681404, lat=43.085823, altitude=159.80, speed=10.14, satellites=8, angle=334.7400, fixquality=2
$GPRMC,183504.800,A,4305.1505,N,07740.8851,W,11.10,344.66,030319,,,D*43
$GPGGA,183505.000,4305.1512,N,07740.8853,W,2,08,1.08,159.8,M,-34.4,M,0000,0000*5A
lng=-77.681419, lat=43.085838, altitude=159.80, speed=11.10, satellites=8, angle=344.6600, fixquality=2
$GPRMC,183505.200,A,4305.1519,N,07740.8854,W,12.08,352.10,030319,,,D*4C
$GPGGA,183505.400,4305.1526,N,07740.8855,W,2,08,1.08,159.7,M,-34.4,M,0000,0000*50
lng=-77.681419, lat=43.085865, altitude=159.80, speed=12.08, satellites=8, angle=352.1000, fixquality=2
$GPRMC,183505.600,A,4305.1534,N,07740.8856,W,13.32,355.20,030319,,,D*49
$GPGGA,183505.800,4305.1541,N,07740.8857,W,2,08,1.08,159.7,M,-34.4,M,0000,0000*5F
lng=-77.681427, lat=43.085887, altitude=159.70, speed=13.32, satellites=8, angle=355.2000, fixquality=2
$GPRMC,183506.000,A,4305.1550,N,07740.8858,W,14.48,356.19,030319,,,D*43
$GPGGA,183506.200,4305.1559,N,07740.8859,W,2,08,1.08,159.6,M,-34.4,M,0000,0000*50
lng=-77.681427, lat=43.085914, altitude=159.70, speed=14.48, satellites=8, angle=356.1900, fixquality=2
$GPRMC,183506.400,A,4305.1569,N,07740.8860,W,15.72,356.88,030319,,,D*46
$GPGGA,183506.600,4305.1579,N,07740.8861,W,2,08,1.08,159.6,M,-34.4,M,0000,0000*5D
lng=-77.681434, lat=43.085945, altitude=159.60, speed=15.72, satellites=8, angle=356.8800, fixquality=2
$GPRMC,183506.800,A,4305.1588,N,07740.8861,W,16.89,358.04,030319,,,D*49
$GPGGA,183507.000,4305.1598,N,07740.8862,W,2,08,1.08,159.4,M,-34.4,M,0000,0000*54
lng=-77.681434, lat=43.085979, altitude=159.60, speed=16.89, satellites=8, angle=358.0400, fixquality=2
$GPRMC,183507.200,A,4305.1609,N,07740.8862,W,17.94,358.97,030319,,,D*4C
$GPGGA,183507.400,4305.1619,N,07740.8862,W,2,08,1.08,159.3,M,-34.4,M,0000,0000*5D
lng=-77.681434, lat=43.086017, altitude=159.40, speed=17.94, satellites=8, angle=358.9700, fixquality=2
$GPRMC,183507.600,A,4305.1630,N,07740.8862,W,18.98,359.97,030319,,,D*40
$GPGGA,183507.800,4305.1641,N,07740.8861,W,2,08,1.08,159.2,M,-34.4,M,0000,0000*5E
lng=-77.681434, lat=43.086051, altitude=159.30, speed=18.98, satellites=8, angle=359.9700, fixquality=2
$GPRMC,183508.000,A,4305.1652,N,07740.8861,W,20.09,1.22,030319,,,D*4D
$GPGGA,183508.200,4305.1664,N,07740.8861,W,2,08,1.08,159.0,M,-34.4,M,0000,0000*5E
lng=-77.681434, lat=43.086082, altitude=159.20, speed=20.09, satellites=8, angle=1.2200, fixquality=2
$GPRMC,183508.400,A,4305.1676,N,07740.8860,W,20.95,2.04,030319,,,D*4C
$GPGGA,183508.600,4305.1688,N,07740.8860,W,2,08,1.08,158.9,M,-34.4,M,0000,0000*51
lng=-77.681434, lat=43.086124, altitude=159.00, speed=20.95, satellites=8, angle=2.0400, fixquality=2
$GPRMC,183508.800,A,4305.1700,N,07740.8859,W,21.84,2.91,030319,,,D*47
$GPGGA,183509.000,4305.1712,N,07740.8859,W,2,08,1.08,158.8,M,-34.4,M,0000,0000*5F
lng=-77.681427, lat=43.086166, altitude=158.90, speed=21.84, satellites=8, angle=2.9100, fixquality=2
$GPRMC,183509.200,A,4305.1725,N,07740.8858,W,22.78,3.10,030319,,,D*42
$GPGGA,183509.400,4305.1738,N,07740.8857,W,2,08,1.08,158.6,M,-34.4,M,0000,0000*53
lng=-77.681427, lat=43.086204, altitude=158.80, speed=22.78, satellites=8, angle=3.1000, fixquality=2
$GPRMC,183509.600,A,4305.1752,N,07740.8856,W,23.59,2.92,030319,,,D*41
$GPGGA,183509.800,4305.1765,N,07740.8855,W,2,08,1.08,158.5,M,-34.4,M,0000,0000*56
lng=-77.681427, lat=43.086254, altitude=158.60, speed=23.59, satellites=8, angle=2.9200, fixquality=2
$GPRMC,183510.000,A,4305.1779,N,07740.8854,W,24.23,2.65,030319,,,D*46
$GPGGA,183510.200,4305.1793,N,07740.8853,W,2,08,1.08,158.3,M,-34.4,M,0000,0000*5D
lng=-77.681419, lat=43.086296, altitude=158.50, speed=24.23, satellites=8, angle=2.6500, fixquality=2
$GPRMC,183510.400,A,4305.1807,N,07740.8852,W,24.31,2.49,030319,,,D*4F
$GPGGA,183510.600,4305.1820,N,07740.8851,W,2,08,1.08,158.2,M,-34.4,M,0000,0000*5D
lng=-77.681419, lat=43.086345, altitude=158.30, speed=24.31, satellites=8, angle=2.4900, fixquality=2
$GPRMC,183510.800,A,4305.1834,N,07740.8851,W,24.31,2.28,030319,,,D*47
$GPGGA,183511.000,4305.1848,N,07740.8850,W,2,08,1.08,158.0,M,-34.4,M,0000,0000*57
lng=-77.681419, lat=43.086391, altitude=158.20, speed=24.31, satellites=8, angle=2.2800, fixquality=2
$GPRMC,183511.200,A,4305.1862,N,07740.8849,W,24.28,1.67,030319,,,D*46
$GPGGA,183511.400,4305.1876,N,07740.8849,W,2,08,1.08,157.8,M,-34.4,M,0000,0000*51
lng=-77.681411, lat=43.086433, altitude=158.00, speed=24.28, satellites=8, angle=1.6700, fixquality=2
$GPRMC,183511.600,A,4305.1889,N,07740.8848,W,24.27,1.58,030319,,,D*45
$GPGGA,183511.800,4305.1903,N,07740.8848,W,2,08,1.08,157.7,M,-34.4,M,0000,0000*50
lng=-77.681411, lat=43.086483, altitude=157.80, speed=24.27, satellites=8, angle=1.5800, fixquality=2
$GPRMC,183512.000,A,4305.1917,N,07740.8847,W,24.26,1.04,030319,,,D*41
$GPGGA,183512.200,4305.1930,N,07740.8847,W,2,08,1.08,157.5,M,-34.4,M,0000,0000*54
lng=-77.681411, lat=43.086532, altitude=157.70, speed=24.26, satellites=8, angle=1.0400, fixquality=2
$GPRMC,183512.400,A,4305.1944,N,07740.8847,W,24.25,0.27,030319,,,D*40
$GPGGA,183512.600,4305.1957,N,07740.8846,W,2,08,1.08,157.2,M,-34.4,M,0000,0000*57
lng=-77.681411, lat=43.086570, altitude=157.50, speed=24.25, satellites=8, angle=0.2700, fixquality=2
$GPRMC,183512.800,A,4305.1971,N,07740.8845,W,24.21,359.76,030319,,,D*47
$GPGGA,183513.000,4305.1984,N,07740.8845,W,2,08,1.08,157.0,M,-34.4,M,0000,0000*5F
lng=-77.681404, lat=43.086620, altitude=157.20, speed=24.21, satellites=8, angle=359.7600, fixquality=2
$GPRMC,183513.200,A,4305.1998,N,07740.8845,W,24.12,359.69,030319,,,D*45
$GPGGA,183513.400,4305.2012,N,07740.8845,W,2,08,1.08,156.8,M,-34.4,M,0000,0000*57
lng=-77.681404, lat=43.086662, altitude=157.00, speed=24.12, satellites=8, angle=359.6900, fixquality=2
$GPRMC,183513.600,A,4305.2025,N,07740.8845,W,24.01,359.43,030319,,,D*47
$GPGGA,183513.800,4305.2039,N,07740.8845,W,2,08,1.08,156.5,M,-34.4,M,0000,0000*5F
lng=-77.681404, lat=43.086711, altitude=156.80, speed=24.01, satellites=8, angle=359.4300, fixquality=2
$GPRMC,183514.000,A,4305.2052,N,07740.8845,W,23.91,358.64,030319,,,D*4C
$GPGGA,183514.200,4305.2066,N,07740.8845,W,2,08,1.08,156.2,M,-34.4,M,0000,0000*5F
lng=-77.681404, lat=43.086750, altitude=156.50, speed=23.91, satellites=8, angle=358.6400, fixquality=2
$GPRMC,183514.400,A,4305.2079,N,07740.8846,W,23.80,357.62,030319,,,D*4B
$GPGGA,183514.600,4305.2093,N,07740.8846,W,2,08,1.08,156.0,M,-34.4,M,0000,0000*50
lng=-77.681411, lat=43.086799, altitude=156.20, speed=23.80, satellites=8, angle=357.6200, fixquality=2
$GPRMC,183514.800,A,4305.2107,N,07740.8847,W,23.51,356.25,030319,,,D*40
$GPGGA,183515.000,4305.2120,N,07740.8847,W,2,08,1.08,155.8,M,-34.4,M,0000,0000*54
lng=-77.681411, lat=43.086849, altitude=156.00, speed=23.51, satellites=8, angle=356.2500, fixquality=2
$GPRMC,183515.200,A,4305.2134,N,07740.8848,W,23.50,356.01,030319,,,D*43
$GPGGA,183515.400,4305.2147,N,07740.8849,W,2,08,1.08,155.5,M,-34.4,M,0000,0000*52
lng=-77.681411, lat=43.086891, altitude=155.80, speed=23.50, satellites=8, angle=356.0100, fixquality=2
$GPRMC,183515.600,A,4305.2160,N,07740.8850,W,23.30,354.76,030319,,,D*4B
$GPGGA,183515.800,4305.2174,N,07740.8851,W,2,08,1.08,155.3,M,-34.4,M,0000,0000*51
lng=-77.681411, lat=43.086929, altitude=155.50, speed=23.30, satellites=8, angle=354.7600, fixquality=2
$GPRMC,183516.000,A,4305.2187,N,07740.8852,W,23.09,354.05,030319,,,D*4B
$GPGGA,183516.200,4305.2200,N,07740.8854,W,2,08,1.08,155.1,M,-34.4,M,0000,0000*5F
lng=-77.681419, lat=43.086978, altitude=155.30, speed=23.09, satellites=8, angle=354.0500, fixquality=2
$GPRMC,183516.400,A,4305.2213,N,07740.8856,W,23.08,353.06,030319,,,D*40
$GPGGA,183516.600,4305.2226,N,07740.8858,W,2,08,1.08,154.9,M,-34.4,M,0000,0000*5A
lng=-77.681427, lat=43.087020, altitude=155.10, speed=23.08, satellites=8, angle=353.0600, fixquality=2
$GPRMC,183516.800,A,4305.2239,N,07740.8860,W,22.86,351.40,030319,,,D*46
$GPGGA,183517.000,4305.2252,N,07740.8862,W,2,08,1.08,154.7,M,-34.4,M,0000,0000*59
lng=-77.681434, lat=43.087070, altitude=154.90, speed=22.86, satellites=8, angle=351.4000, fixquality=2
$GPRMC,183517.200,A,4305.2264,N,07740.8865,W,21.52,350.89,030319,,,D*4E
$GPGGA,183517.400,4305.2276,N,07740.8867,W,2,08,1.08,154.6,M,-34.4,M,0000,0000*5F
lng=-77.681442, lat=43.087108, altitude=154.70, speed=21.52, satellites=8, angle=350.8900, fixquality=2
$GPRMC,183517.600,A,4305.2287,N,07740.8869,W,20.05,349.89,030319,,,D*40
$GPGGA,183517.800,4305.2299,N,07740.8872,W,2,08,1.08,154.4,M,-34.4,M,0000,0000*54
lng=-77.681442, lat=43.087142, altitude=154.60, speed=20.05, satellites=8, angle=349.8900, fixquality=2
$GPRMC,183518.000,A,4305.2309,N,07740.8874,W,18.71,349.94,030319,,,D*46
$GPGGA,183518.200,4305.2319,N,07740.8876,W,2,08,1.08,154.2,M,-34.4,M,0000,0000*5A
lng=-77.681449, lat=43.087181, altitude=154.40, speed=18.71, satellites=8, angle=349.9400, fixquality=2
$GPRMC,183518.400,A,4305.2329,N,07740.8878,W,16.91,350.18,030319,,,D*40
$GPGGA,183518.600,4305.2338,N,07740.8880,W,2,08,1.08,154.0,M,-34.4,M,0000,0000*56
lng=-77.681465, lat=43.087215, altitude=154.20, speed=16.91, satellites=8, angle=350.1800, fixquality=2
$GPRMC,183518.800,A,4305.2347,N,07740.8881,W,14.88,350.31,030319,,,D*43
$GPGGA,183519.000,4305.2356,N,07740.8883,W,2,08,1.08,153.9,M,-34.4,M,0000,0000*54
lng=-77.681472, lat=43.087245, altitude=154.00, speed=14.88, satellites=8, angle=350.3100, fixquality=2
$GPRMC,183519.200,A,4305.2364,N,07740.8884,W,12.53,351.40,030319,,,D*4B
$GPGGA,183519.400,4305.2371,N,07740.8885,W,2,08,1.08,153.9,M,-34.4,M,0000,0000*53
lng=-77.681472, lat=43.087272, altitude=153.90, speed=12.53, satellites=8, angle=351.4000, fixquality=2
$GPRMC,183519.600,A,4305.2377,N,07740.8885,W,9.79,352.49,030319,,,D*74
$GPGGA,183519.800,4305.2382,N,07740.8885,W,2,08,1.08,153.8,M,-34.4,M,0000,0000*52
lng=-77.681480, lat=43.087295, altitude=153.90, speed=9.79, satellites=8, angle=352.4900, fixquality=2
$GPRMC,183520.000,A,4305.2387,N,07740.8886,W,7.14,354.84,030319,,,D*76
$GPGGA,183520.200,4305.2390,N,07740.8886,W,2,08,1.08,153.7,M,-34.4,M,0000,0000*5D
lng=-77.681480, lat=43.087314, altitude=153.80, speed=7.14, satellites=8, angle=354.8400, fixquality=2
$GPRMC,183520.400,A,4305.2393,N,07740.8886,W,4.51,355.84,030319,,,D*74
$GPGGA,183520.600,4305.2396,N,07740.8886,W,2,08,1.08,153.7,M,-34.4,M,0000,0000*5F
lng=-77.681480, lat=43.087322, altitude=153.70, speed=4.51, satellites=8, angle=355.8400, fixquality=2
$GPRMC,183520.800,A,4305.2398,N,07740.8886,W,3.97,0.78,030319,,,D*7E
$GPGGA,183521.000,4305.2400,N,07740.8886,W,2,08,1.08,153.6,M,-34.4,M,0000,0000*51
lng=-77.681480, lat=43.087329, altitude=153.70, speed=3.97, satellites=8, angle=0.7800, fixquality=2
$GPRMC,183521.200,A,4305.2403,N,07740.8885,W,5.30,3.71,030319,,,D*72
$GPGGA,183521.400,4305.2406,N,07740.8885,W,2,08,1.08,153.6,M,-34.4,M,0000,0000*50
lng=-77.681480, lat=43.087337, altitude=153.60, speed=5.30, satellites=8, angle=3.7100, fixquality=2
$GPRMC,183521.600,A,4305.2410,N,07740.8885,W,7.11,10.46,030319,,,D*43
$GPGGA,183521.800,4305.2414,N,07740.8884,W,2,08,1.08,153.6,M,-34.4,M,0000,0000*5E
lng=-77.681480, lat=43.087352, altitude=153.60, speed=7.11, satellites=8, angle=10.4600, fixquality=2
$GPRMC,183522.000,A,4305.2419,N,07740.8882,W,8.70,17.35,030319,,,D*43
$GPGGA,183522.200,4305.2423,N,07740.8880,W,2,08,1.08,153.6,M,-34.4,M,0000,0000*57
lng=-77.681472, lat=43.087360, altitude=153.60, speed=8.70, satellites=8, angle=17.3500, fixquality=2
$GPRMC,183522.400,A,4305.2428,N,07740.8877,W,10.46,26.43,030319,,,D*70
$GPGGA,183522.600,4305.2434,N,07740.8873,W,2,08,1.08,153.6,M,-34.4,M,0000,0000*59
lng=-77.681465, lat=43.087379, altitude=153.60, speed=10.46, satellites=8, angle=26.4300, fixquality=2
$GPRMC,183522.800,A,4305.2439,N,07740.8868,W,12.23,36.06,030319,,,D*73
$GPGGA,183523.000,4305.2445,N,07740.8861,W,2,08,1.08,153.6,M,-34.4,M,0000,0000*5B
lng=-77.681442, lat=43.087402, altitude=153.60, speed=12.23, satellites=8, angle=36.0600, fixquality=2
$GPRMC,183523.200,A,4305.2450,N,07740.8854,W,13.60,46.16,030319,,,D*78
$GPGGA,183523.400,4305.2455,N,07740.8846,W,2,08,1.08,153.5,M,-34.4,M,0000,0000*58
lng=-77.681419, lat=43.087417, altitude=153.60, speed=13.60, satellites=8, angle=46.1600, fixquality=2
$GPRMC,183523.600,A,4305.2460,N,07740.8837,W,14.78,53.48,030319,,,D*7B
$GPGGA,183523.800,4305.2464,N,07740.8828,W,2,08,1.03,153.5,M,-34.4,M,0000,0000*55
lng=-77.681396, lat=43.087436, altitude=153.50, speed=14.78, satellites=8, angle=53.4800, fixquality=2
$GPRMC,183524.000,A,4305.2468,N,07740.8817,W,16.48,62.97,030319,,,D*71
$GPGGA,183524.200,4305.2472,N,07740.8805,W,2,08,1.08,153.6,M,-34.4,M,0000,0000*58
lng=-77.681365, lat=43.087444, altitude=153.50, speed=16.48, satellites=8, angle=62.9700, fixquality=2
$GPRMC,183524.400,A,4305.2476,N,07740.8793,W,18.18,68.24,030319,,,D*70
$GPGGA,183524.600,4305.2479,N,07740.8780,W,2,08,1.03,153.7,M,-34.4,M,0000,0000*5F
lng=-77.681320, lat=43.087459, altitude=153.60, speed=18.18, satellites=8, angle=68.2400, fixquality=2
$GPRMC,183524.800,A,4305.2483,N,07740.8766,W,19.58,70.19,030319,,,D*7E
$GPGGA,183525.000,4305.2486,N,07740.8751,W,2,08,1.08,153.7,M,-34.4,M,0000,0000*5F
lng=-77.681274, lat=43.087474, altitude=153.70, speed=19.58, satellites=8, angle=70.1900, fixquality=2
$GPRMC,183525.200,A,4305.2489,N,07740.8736,W,21.31,73.13,030319,,,D*77
$GPGGA,183525.400,4305.2492,N,07740.8720,W,2,08,1.08,153.7,M,-34.4,M,0000,0000*58
lng=-77.681228, lat=43.087482, altitude=153.70, speed=21.31, satellites=8, angle=73.1300, fixquality=2
$GPRMC,183525.600,A,4305.2495,N,07740.8703,W,22.80,75.62,030319,,,D*71
$GPGGA,183525.800,4305.2498,N,07740.8685,W,2,08,1.08,153.6,M,-34.4,M,0000,0000*51
lng=-77.681167, lat=43.087490, altitude=153.70, speed=22.80, satellites=8, angle=75.6200, fixquality=2
$GPRMC,183526.000,A,4305.2501,N,07740.8668,W,24.20,76.55,030319,,,D*7F
$GPGGA,183526.200,4305.2504,N,07740.8649,W,2,08,1.08,153.6,M,-34.4,M,0000,0000*5C
lng=-77.681114, lat=43.087501, altitude=153.60, speed=24.20, satellites=8, angle=76.5500, fixquality=2
$GPRMC,183526.400,A,4305.2507,N,07740.8631,W,25.34,76.88,030319,,,D*75
$GPGGA,183526.600,4305.2510,N,07740.8612,W,2,08,1.08,153.6,M,-34.4,M,0000,0000*53
lng=-77.681053, lat=43.087509, altitude=153.60, speed=25.34, satellites=8, angle=76.8800, fixquality=2
$GPRMC,183526.800,A,4305.2513,N,07740.8593,W,26.28,77.07,030319,,,D*7F
$GPGGA,183527.000,4305.2517,N,07740.8573,W,2,08,1.08,153.7,M,-34.4,M,0000,0000*56
lng=-77.680992, lat=43.087524, altitude=153.60, speed=26.28, satellites=8, angle=77.0700, fixquality=2
$GPRMC,183527.200,A,4305.2520,N,07740.8553,W,27.22,77.18,030319,,,D*7D
$GPGGA,183527.400,4305.2523,N,07740.8533,W,2,08,1.08,153.8,M,-34.4,M,0000,0000*5E
lng=-77.680923, lat=43.087532, altitude=153.70, speed=27.22, satellites=8, angle=77.1800, fixquality=2
$GPRMC,183527.600,A,4305.2526,N,07740.8512,W,28.02,77.53,030319,,,D*78
$GPGGA,183527.800,4305.2530,N,07740.8492,W,2,08,1.08,153.9,M,-34.4,M,0000,0000*5B
lng=-77.680854, lat=43.087539, altitude=153.80, speed=28.02, satellites=8, angle=77.5300, fixquality=2
$GPRMC,183528.000,A,4305.2533,N,07740.8470,W,28.74,78.20,030319,,,D*7A
$GPGGA,183528.200,4305.2536,N,07740.8449,W,2,08,1.08,153.9,M,-34.4,M,0000,0000*5E
lng=-77.680786, lat=43.087558, altitude=153.90, speed=28.74, satellites=8, angle=78.2000, fixquality=2
$GPRMC,183528.400,A,4305.2539,N,07740.8427,W,29.09,79.25,030319,,,D*79
$GPGGA,183528.600,4305.2542,N,07740.8405,W,2,08,1.08,153.9,M,-34.4,M,0000,0000*51
lng=-77.680709, lat=43.087566, altitude=153.90, speed=29.09, satellites=8, angle=79.2500, fixquality=2
$GPRMC,183528.800,A,4305.2545,N,07740.8383,W,29.80,80.25,030319,,,D*70
$GPGGA,183529.000,4305.2548,N,07740.8361,W,2,08,1.08,153.8,M,-34.4,M,0000,0000*58
lng=-77.680641, lat=43.087574, altitude=153.90, speed=29.80, satellites=8, angle=80.2500, fixquality=2
$GPRMC,183529.200,A,4305.2550,N,07740.8338,W,29.76,81.21,030319,,,D*73
$GPGGA,183529.400,4305.2553,N,07740.8316,W,2,08,1.08,153.9,M,-34.4,M,0000,0000*57
lng=-77.680564, lat=43.087581, altitude=153.80, speed=29.76, satellites=8, angle=81.2100, fixquality=2
$GPRMC,183529.600,A,4305.2555,N,07740.8294,W,29.48,82.33,030319,,,D*78
$GPGGA,183529.800,4305.2557,N,07740.8271,W,2,08,1.08,153.9,M,-34.4,M,0000,0000*5F
lng=-77.680496, lat=43.087589, altitude=153.90, speed=29.48, satellites=8, angle=82.3300, fixquality=2
$GPRMC,183530.000,A,4305.2559,N,07740.8249,W,28.98,83.09,030319,,,D*7E
$GPGGA,183530.200,4305.2561,N,07740.8227,W,2,08,1.08,153.9,M,-34.4,M,0000,0000*5B
lng=-77.680412, lat=43.087596, altitude=153.90, speed=28.98, satellites=8, angle=83.0900, fixquality=2
$GPRMC,183530.400,A,4305.2562,N,07740.8206,W,28.72,83.82,030319,,,D*7E
$GPGGA,183530.600,4305.2564,N,07740.8185,W,2,08,1.08,154.0,M,-34.4,M,0000,0000*5F
lng=-77.680343, lat=43.087604, altitude=153.90, speed=28.72, satellites=8, angle=83.8200, fixquality=2
$GPRMC,183530.800,A,4305.2565,N,07740.8164,W,28.35,84.50,030319,,,D*79
$GPGGA,183531.000,4305.2567,N,07740.8143,W,2,08,1.08,154.1,M,-34.4,M,0000,0000*50
lng=-77.680274, lat=43.087604, altitude=154.00, speed=28.35, satellites=8, angle=84.5000, fixquality=2
$GPRMC,183531.200,A,4305.2568,N,07740.8123,W,28.01,85.48,030319,,,D*73
$GPGGA,183531.400,4305.2569,N,07740.8102,W,2,08,1.08,154.1,M,-34.4,M,0000,0000*5F
lng=-77.680206, lat=43.087612, altitude=154.10, speed=28.01, satellites=8, angle=85.4800, fixquality=2
$GPRMC,183531.600,A,4305.2570,N,07740.8082,W,27.73,85.80,030319,,,D*7A
$GPGGA,183531.800,4305.2571,N,07740.8061,W,2,08,1.08,154.2,M,-34.4,M,0000,0000*5D
lng=-77.680137, lat=43.087612, altitude=154.10, speed=27.73, satellites=8, angle=85.8000, fixquality=2
$GPRMC,183532.000,A,4305.2572,N,07740.8041,W,27.50,86.35,030319,,,D*7E
$GPGGA,183532.200,4305.2572,N,07740.8020,W,2,08,1.08,154.2,M,-34.4,M,0000,0000*52
lng=-77.680068, lat=43.087623, altitude=154.20, speed=27.50, satellites=8, angle=86.3500, fixquality=2
$GPRMC,183532.400,A,4305.2573,N,07740.8000,W,27.20,86.38,030319,,,D*74
$GPGGA,183532.600,4305.2574,N,07740.7980,W,2,08,1.08,154.3,M,-34.4,M,0000,0000*5D
lng=-77.680000, lat=43.087623, altitude=154.20, speed=27.20, satellites=8, angle=86.3800, fixquality=2
$GPRMC,183532.800,A,4305.2575,N,07740.7960,W,26.75,86.11,030319,,,D*74
$GPGGA,183533.000,4305.2575,N,07740.7940,W,2,08,1.08,154.3,M,-34.4,M,0000,0000*57
lng=-77.679931, lat=43.087623, altitude=154.30, speed=26.75, satellites=8, angle=86.1100, fixquality=2
$GPRMC,183533.200,A,4305.2576,N,07740.7920,W,26.48,85.85,030319,,,D*78
$GPGGA,183533.400,4305.2577,N,07740.7900,W,2,08,1.08,154.3,M,-34.4,M,0000,0000*55
lng=-77.679862, lat=43.087631, altitude=154.30, speed=26.48, satellites=8, angle=85.8500, fixquality=2
$GPRMC,183533.600,A,4305.2578,N,07740.7880,W,26.14,85.63,030319,,,D*78
$GPGGA,183533.800,4305.2579,N,07740.7861,W,2,08,1.08,154.3,M,-34.4,M,0000,0000*51
lng=-77.679801, lat=43.087631, altitude=154.30, speed=26.14, satellites=8, angle=85.6300, fixquality=2
$GPRMC,183534.000,A,4305.2580,N,07740.7842,W,25.69,85.69,030319,,,D*73
$GPGGA,183534.200,4305.2581,N,07740.7823,W,2,08,1.08,154.4,M,-34.4,M,0000,0000*5A
lng=-77.679733, lat=43.087631, altitude=154.30, speed=25.69, satellites=8, angle=85.6900, fixquality=2
$GPRMC,183534.400,A,4305.2581,N,07740.7804,W,25.15,85.52,030319,,,D*77
$GPGGA,183534.600,4305.2582,N,07740.7786,W,2,08,1.08,154.5,M,-34.4,M,0000,0000*5C
lng=-77.679672, lat=43.087638, altitude=154.40, speed=25.15, satellites=8, angle=85.5200, fixquality=2
$GPRMC,183534.800,A,4305.2583,N,07740.7769,W,23.69,85.72,030319,,,D*72
$GPGGA,183535.000,4305.2584,N,07740.7751,W,2,08,1.08,154.6,M,-34.4,M,0000,0000*54
lng=-77.679611, lat=43.087638, altitude=154.50, speed=23.69, satellites=8, angle=85.7200, fixquality=2
$GPRMC,183535.200,A,4305.2585,N,07740.7735,W,22.28,86.39,030319,,,D*7E
$GPGGA,183535.400,4305.2585,N,07740.7719,W,2,08,1.08,154.6,M,-34.4,M,0000,0000*5D
lng=-77.679557, lat=43.087638, altitude=154.60, speed=22.28, satellites=8, angle=86.3900, fixquality=2
$GPRMC,183535.600,A,4305.2586,N,07740.7703,W,20.40,87.18,030319,,,D*72
$GPGGA,183535.800,4305.2586,N,07740.7688,W,2,08,1.08,154.7,M,-34.4,M,0000,0000*5A
lng=-77.679512, lat=43.087646, altitude=154.60, speed=20.40, satellites=8, angle=87.1800, fixquality=2
$GPRMC,183536.000,A,4305.2586,N,07740.7674,W,18.23,88.08,030319,,,D*76
$GPGGA,183536.200,4305.2586,N,07740.7661,W,2,08,1.08,154.6,M,-34.4,M,0000,0000*55
lng=-77.679458, lat=43.087646, altitude=154.70, speed=18.23, satellites=8, angle=88.0800, fixquality=2
$GPRMC,183536.400,A,4305.2586,N,07740.7649,W,15.87,88.68,030319,,,D*79
$GPGGA,183536.600,4305.2586,N,07740.7639,W,2,08,1.08,154.7,M,-34.4,M,0000,0000*5D
lng=-77.679420, lat=43.087646, altitude=154.60, speed=15.87, satellites=8, angle=88.6800, fixquality=2
$GPRMC,183536.800,A,4305.2585,N,07740.7630,W,12.80,89.10,030319,,,D*76
$GPGGA,183537.000,4305.2585,N,07740.7622,W,2,08,1.08,154.7,M,-34.4,M,0000,0000*53
lng=-77.679389, lat=43.087638, altitude=154.70, speed=12.80, satellites=8, angle=89.1000, fixquality=2
$GPRMC,183537.200,A,4305.2585,N,07740.7615,W,9.42,89.56,030319,,,D*4C
$GPGGA,183537.400,4305.2584,N,07740.7610,W,2,08,1.08,154.8,M,-34.4,M,0000,0000*58
lng=-77.679359, lat=43.087638, altitude=154.70, speed=9.42, satellites=8, angle=89.5600, fixquality=2
$GPRMC,183537.600,A,4305.2584,N,07740.7605,W,6.22,89.14,030319,,,D*47
$GPGGA,183537.800,4305.2583,N,07740.7602,W,2,08,1.08,154.8,M,-34.4,M,0000,0000*50
lng=-77.679344, lat=43.087638, altitude=154.80, speed=6.22, satellites=8, angle=89.1400, fixquality=2
$GPRMC,183538.000,A,4305.2583,N,07740.7600,W,4.08,89.62,030319,,,D*47
$GPGGA,183538.200,4305.2583,N,07740.7598,W,2,08,1.08,154.9,M,-34.4,M,0000,0000*54
lng=-77.679328, lat=43.087638, altitude=154.80, speed=4.08, satellites=8, angle=89.6200, fixquality=2
$GPRMC,183538.400,A,4305.2583,N,07740.7596,W,2.89,90.67,030319,,,D*4D
$GPGGA,183538.600,4305.2583,N,07740.7594,W,2,08,1.03,155.0,M,-34.4,M,0000,0000*5F
lng=-77.679328, lat=43.087638, altitude=154.90, speed=2.89, satellites=8, angle=90.6700, fixquality=2
$GPRMC,183538.800,A,4305.2582,N,07740.7592,W,3.04,91.94,030319,,,D*4D
$GPGGA,183539.000,4305.2582,N,07740.7590,W,2,08,1.03,155.0,M,-34.4,M,0000,0000*5D
lng=-77.679321, lat=43.087638, altitude=155.00, speed=3.04, satellites=8, angle=91.9400, fixquality=2
$GPRMC,183539.200,A,4305.2582,N,07740.7587,W,3.98,90.02,030319,,,D*49
$GPGGA,183539.400,4305.2582,N,07740.7584,W,2,08,1.08,155.1,M,-34.4,M,0000,0000*56
lng=-77.679313, lat=43.087638, altitude=155.00, speed=3.98, satellites=8, angle=90.0200, fixquality=2
$GPRMC,183539.600,A,4305.2582,N,07740.7580,W,5.33,87.26,030319,,,D*4D
$GPGGA,183539.800,4305.2582,N,07740.7576,W,2,08,1.08,155.2,M,-34.4,M,0000,0000*54
lng=-77.679298, lat=43.087638, altitude=155.10, speed=5.33, satellites=8, angle=87.2600, fixquality=2
$GPRMC,183540.000,A,4305.2582,N,07740.7571,W,6.88,82.50,030319,,,D*4C
$GPGGA,183540.200,4305.2583,N,07740.7566,W,2,08,1.08,155.3,M,-34.4,M,0000,0000*51
lng=-77.679290, lat=43.087638, altitude=155.20, speed=6.88, satellites=8, angle=82.5000, fixquality=2
$GPRMC,183540.400,A,4305.2584,N,07740.7560,W,8.23,76.81,030319,,,D*46
$GPGGA,183540.600,4305.2585,N,07740.7554,W,2,08,1.08,155.4,M,-34.4,M,0000,0000*55
lng=-77.679267, lat=43.087638, altitude=155.30, speed=8.23, satellites=8, angle=76.8100, fixquality=2
$GPRMC,183540.800,A,4305.2587,N,07740.7548,W,9.71,69.70,030319,,,D*45
$GPGGA,183541.000,4305.2589,N,07740.7541,W,2,08,1.08,155.6,M,-34.4,M,0000,0000*58
lng=-77.679244, lat=43.087646, altitude=155.40, speed=9.71, satellites=8, angle=69.7000, fixquality=2
$GPRMC,183541.200,A,4305.2591,N,07740.7534,W,10.76,61.55,030319,,,D*72
$GPGGA,183541.400,4305.2595,N,07740.7527,W,2,08,1.08,155.7,M,-34.4,M,0000,0000*50
lng=-77.679222, lat=43.087654, altitude=155.60, speed=10.76, satellites=8, angle=61.5500, fixquality=2
$GPRMC,183541.600,A,4305.2598,N,07740.7520,W,11.85,51.94,030319,,,D*79
$GPGGA,183541.800,4305.2603,N,07740.7513,W,2,08,1.08,155.7,M,-34.4,M,0000,0000*57
lng=-77.679199, lat=43.087661, altitude=155.70, speed=11.85, satellites=8, angle=51.9400, fixquality=2
$GPRMC,183542.000,A,4305.2608,N,07740.7507,W,12.97,41.27,030319,,,D*7A
$GPGGA,183542.200,4305.2614,N,07740.7500,W,2,08,1.08,155.7,M,-34.4,M,0000,0000*5A
lng=-77.679176, lat=43.087680, altitude=155.70, speed=12.97, satellites=8, angle=41.2700, fixquality=2
$GPRMC,183542.400,A,4305.2620,N,07740.7495,W,13.88,30.52,030319,,,D*75
$GPGGA,183542.600,4305.2627,N,07740.7490,W,2,08,1.08,155.8,M,-34.4,M,0000,0000*59
lng=-77.679161, lat=43.087703, altitude=155.70, speed=13.88, satellites=8, angle=30.5200, fixquality=2
$GPRMC,183542.800,A,4305.2634,N,07740.7485,W,14.83,21.96,030319,,,D*79
$GPGGA,183543.000,4305.2643,N,07740.7482,W,2,08,1.08,155.9,M,-34.4,M,0000,0000*5E
lng=-77.679145, lat=43.087718, altitude=155.80, speed=14.83, satellites=8, angle=21.9600, fixquality=2
$GPRMC,183543.200,A,4305.2651,N,07740.7479,W,15.77,14.89,030319,,,D*70
$GPGGA,183543.400,4305.2660,N,07740.7477,W,2,08,1.08,156.0,M,-34.4,M,0000,0000*5B
lng=-77.679130, lat=43.087753, altitude=155.90, speed=15.77, satellites=8, angle=14.8900, fixquality=2
$GPRMC,183543.600,A,4305.2670,N,07740.7475,W,17.02,8.57,030319,,,D*45
$GPGGA,183543.800,4305.2680,N,07740.7474,W,2,08,1.08,156.1,M,-34.4,M,0000,0000*5B
lng=-77.679122, lat=43.087783, altitude=156.00, speed=17.02, satellites=8, angle=8.5700, fixquality=2
$GPRMC,183544.000,A,4305.2690,N,07740.7473,W,18.28,4.41,030319,,,D*40
$GPGGA,183544.200,4305.2701,N,07740.7472,W,2,08,1.08,156.2,M,-34.4,M,0000,0000*5B
lng=-77.679115, lat=43.087818, altitude=156.10, speed=18.28, satellites=8, angle=4.4100, fixquality=2
$GPRMC,183544.400,A,4305.2712,N,07740.7471,W,19.56,2.28,030319,,,D*4C
$GPGGA,183544.600,4305.2723,N,07740.7471,W,2,08,1.08,156.3,M,-34.4,M,0000,0000*5D
