Vers 57
USE_SERIAL_FEEDBACK=false
DEVELOPMENT_MODE=false
USE_RMC_ONLY=false

$GPRMC,192710.000,A,4308.4237,N,07726.1170,W,18.71,4.22,040319,,,A*4A
$GPGGA,192710.200,4308.4246,N,07726.1168,W,1,07,1.13,150.1,M,-34.4,M,,*5E
lng=-77.435287, lat=43.140396, altitude=151.10, speed=18.71, satellites=7, angle=4.2200, fixquality=1
$GPRMC,192710.400,A,4308.4254,N,07726.1168,W,16.99,3.99,040319,,,A*4D
$GPGGA,192710.600,4308.4261,N,07726.1166,W,1,07,1.13,149.4,M,-34.4,M,,*5C
lng=-77.435279, lat=43.140422, altitude=150.10, speed=16.99, satellites=7, angle=3.9900, fixquality=1
$GPRMC,192710.800,A,4308.4267,N,07726.1166,W,13.82,6.35,040319,,,A*43
$GPGGA,192711.000,4308.4272,N,07726.1167,W,1,07,1.13,149.1,M,-34.4,M,,*5D
lng=-77.435279, lat=43.140445, altitude=149.40, speed=13.82, satellites=7, angle=6.3500, fixquality=1
$GPRMC,192711.200,A,4308.4277,N,07726.1168,W,11.01,7.44,040319,,,A*49
$GPGGA,192711.400,4308.4281,N,07726.1168,W,1,07,1.13,148.8,M,-34.4,M,,*52
lng=-77.435279, lat=43.140460, altitude=149.10, speed=11.01, satellites=7, angle=7.4400, fixquality=1
$GPRMC,192711.600,A,4308.4285,N,07726.1168,W,9.09,9.38,040319,,,A*74
$GPGGA,192711.800,4308.4288,N,07726.1166,W,1,07,1.13,148.6,M,-34.4,M,,*57
lng=-77.435279, lat=43.140480, altitude=148.80, speed=9.09, satellites=7, angle=9.3800, fixquality=1
$GPRMC,192712.000,A,4308.4290,N,07726.1165,W,5.67,12.84,040319,,,A*41
$GPGGA,192712.200,4308.4291,N,07726.1165,W,1,07,1.13,148.6,M,-34.4,M,,*55
lng=-77.435279, lat=43.140487, altitude=148.60, speed=5.67, satellites=7, angle=12.8400, fixquality=1
$GPRMC,192712.400,A,4308.4291,N,07726.1165,W,2.85,16.80,040319,,,A*4F
$GPGGA,192712.600,4308.4293,N,07726.1165,W,1,07,1.13,149.9,M,-34.4,M,,*5D
lng=-77.435279, lat=43.140487, altitude=148.60, speed=2.85, satellites=7, angle=16.8000, fixquality=1
$GPRMC,192712.800,A,4308.4294,N,07726.1165,W,2.26,14.66,040319,,,A*45
$GPGGA,192713.000,4308.4296,N,07726.1166,W,1,07,1.13,150.5,M,-34.4,M,,*58
lng=-77.435279, lat=43.140487, altitude=149.90, speed=2.26, satellites=7, angle=14.6600, fixquality=1
$GPRMC,192713.200,A,4308.4297,N,07726.1166,W,2.73,1.84,040319,,,A*76
$GPGGA,192713.400,4308.4301,N,07726.1167,W,1,08,1.04,150.2,M,-34.4,M,,*5C
lng=-77.435279, lat=43.140495, altitude=150.50, speed=2.73, satellites=7, angle=1.8400, fixquality=1
$GPRMC,192713.600,A,4308.4305,N,07726.1168,W,4.22,351.72,040319,,,A*7B
$GPGGA,192713.800,4308.4309,N,07726.1170,W,1,08,1.04,150.3,M,-34.4,M,,*5F
lng=-77.435279, lat=43.140510, altitude=150.20, speed=4.22, satellites=8, angle=351.7200, fixquality=1
$GPRMC,192714.000,A,4308.4312,N,07726.1172,W,5.42,345.47,040319,,,A*73
$GPGGA,192714.200,4308.4315,N,07726.1174,W,1,08,1.04,150.1,M,-34.4,M,,*59
lng=-77.435287, lat=43.140518, altitude=150.30, speed=5.42, satellites=8, angle=345.4700, fixquality=1
$GPRMC,192714.400,A,4308.4318,N,07726.1177,W,6.50,334.52,040319,,,A*7A
$GPGGA,192714.600,4308.4322,N,07726.1179,W,1,08,1.04,150.0,M,-34.4,M,,*55
lng=-77.435295, lat=43.140525, altitude=150.10, speed=6.50, satellites=8, angle=334.5200, fixquality=1
$GPRMC,192714.800,A,4308.4326,N,07726.1183,W,8.19,320.78,040319,,,A*7E
$GPGGA,192715.000,4308.4331,N,07726.1188,W,1,08,1.04,149.9,M,-34.4,M,,*5F
lng=-77.435302, lat=43.140544, altitude=150.00, speed=8.19, satellites=8, angle=320.7800, fixquality=1
$GPRMC,192715.200,A,4308.4336,N,07726.1195,W,10.78,310.85,040319,,,A*4C
$GPGGA,192715.400,4308.4340,N,07726.1202,W,1,08,1.04,149.8,M,-34.4,M,,*5D
lng=-77.435325, lat=43.140560, altitude=149.90, speed=10.78, satellites=8, angle=310.8500, fixquality=1
$GPRMC,192715.600,A,4308.4345,N,07726.1209,W,12.11,303.83,040319,,,A*43
$GPGGA,192715.800,4308.4350,N,07726.1217,W,1,08,1.04,149.7,M,-34.4,M,,*5B
lng=-77.435348, lat=43.140575, altitude=149.80, speed=12.11, satellites=8, angle=303.8300, fixquality=1
$GPRMC,192716.000,A,4308.4354,N,07726.1227,W,14.14,295.99,040319,,,A*4C
$GPGGA,192716.200,4308.4358,N,07726.1237,W,1,08,1.04,149.9,M,-34.4,M,,*56
lng=-77.435379, lat=43.140590, altitude=149.70, speed=14.14, satellites=8, angle=295.9900, fixquality=1
$GPRMC,192716.400,A,4308.4362,N,07726.1247,W,15.70,289.37,040319,,,A*41
$GPGGA,192716.600,4308.4365,N,07726.1259,W,1,08,1.04,149.9,M,-34.4,M,,*54
lng=-77.435409, lat=43.140602, altitude=149.90, speed=15.70, satellites=8, angle=289.3700, fixquality=1
$GPRMC,192716.800,A,4308.4369,N,07726.1271,W,16.58,286.32,040319,,,A*40
$GPGGA,192717.000,4308.4372,N,07726.1283,W,1,08,1.04,149.9,M,-34.4,M,,*52
lng=-77.435447, lat=43.140617, altitude=149.90, speed=16.58, satellites=8, angle=286.3200, fixquality=1
$GPRMC,192717.200,A,4308.4374,N,07726.1298,W,18.46,281.49,040319,,,A*4A
$GPGGA,192717.400,4308.4377,N,07726.1312,W,1,08,1.04,149.8,M,-34.4,M,,*5B
lng=-77.435501, lat=43.140625, altitude=149.90, speed=18.46, satellites=8, angle=281.4900, fixquality=1
$GPRMC,192717.600,A,4308.4379,N,07726.1326,W,19.61,278.50,040319,,,A*4D
$GPGGA,192717.800,4308.4381,N,07726.1341,W,1,08,1.04,149.7,M,-34.4,M,,*57
lng=-77.435546, lat=43.140632, altitude=149.80, speed=19.61, satellites=8, angle=278.5000, fixquality=1
$GPRMC,192718.000,A,4308.4382,N,07726.1358,W,21.07,274.65,040319,,,A*48
$GPGGA,192718.200,4308.4383,N,07726.1374,W,1,08,1.04,149.7,M,-34.4,M,,*56
lng=-77.435592, lat=43.140632, altitude=149.70, speed=21.07, satellites=8, angle=274.6500, fixquality=1
$GPRMC,192718.400,A,4308.4384,N,07726.1391,W,22.00,272.53,040319,,,A*48
$GPGGA,192718.600,4308.4385,N,07726.1408,W,1,08,1.04,149.6,M,-34.4,M,,*59
lng=-77.435653, lat=43.140640, altitude=149.70, speed=22.00, satellites=8, angle=272.5300, fixquality=1
$GPRMC,192718.800,A,4308.4386,N,07726.1427,W,23.59,271.49,040319,,,A*49
$GPGGA,192719.000,4308.4387,N,07726.1446,W,1,08,1.04,149.6,M,-34.4,M,,*56
lng=-77.435707, lat=43.140640, altitude=149.60, speed=23.59, satellites=8, angle=271.4900, fixquality=1
$GPRMC,192719.200,A,4308.4388,N,07726.1466,W,25.18,271.59,040319,,,A*4B
$GPGGA,192719.400,4308.4390,N,07726.1486,W,1,08,1.04,149.6,M,-34.4,M,,*58
lng=-77.435775, lat=43.140647, altitude=149.60, speed=25.18, satellites=8, angle=271.5900, fixquality=1
$GPRMC,192719.600,A,4308.4391,N,07726.1506,W,26.36,272.06,040319,,,A*46
$GPGGA,192719.800,4308.4392,N,07726.1526,W,1,08,1.04,149.4,M,-34.4,M,,*5F
lng=-77.435836, lat=43.140647, altitude=149.60, speed=26.36, satellites=8, angle=272.0600, fixquality=1
$GPRMC,192720.000,A,4308.4393,N,07726.1548,W,28.10,272.81,040319,,,A*47
$GPGGA,192720.200,4308.4395,N,07726.1569,W,1,08,1.04,149.3,M,-34.4,M,,*54
lng=-77.435913, lat=43.140659, altitude=149.40, speed=28.10, satellites=8, angle=272.8100, fixquality=1
$GPRMC,192720.400,A,4308.4397,N,07726.1591,W,28.86,276.06,040319,,,A*47
$GPGGA,192720.600,4308.4399,N,07726.1613,W,1,08,1.04,149.2,M,-34.4,M,,*53
lng=-77.435989, lat=43.140659, altitude=149.30, speed=28.86, satellites=8, angle=276.0600, fixquality=1
$GPRMC,192720.800,A,4308.4401,N,07726.1635,W,29.73,276.44,040319,,,A*43
$GPGGA,192721.000,4308.4404,N,07726.1658,W,1,08,1.04,149.1,M,-34.4,M,,*5B
lng=-77.436058, lat=43.140666, altitude=149.20, speed=29.73, satellites=8, angle=276.4400, fixquality=1
$GPRMC,192721.200,A,4308.4406,N,07726.1682,W,30.75,276.84,040319,,,A*41
$GPGGA,192721.400,4308.4408,N,07726.1706,W,1,08,1.04,149.0,M,-34.4,M,,*58
lng=-77.436134, lat=43.140674, altitude=149.10, speed=30.75, satellites=8, angle=276.8400, fixquality=1
$GPRMC,192721.600,A,4308.4411,N,07726.1730,W,31.70,276.47,040319,,,A*40
$GPGGA,192721.800,4308.4413,N,07726.1755,W,1,08,1.04,148.9,M,-34.4,M,,*50
lng=-77.436210, lat=43.140682, altitude=149.00, speed=31.70, satellites=8, angle=276.4700, fixquality=1
$GPRMC,192722.000,A,4308.4415,N,07726.1780,W,33.20,276.69,040319,,,A*41
$GPGGA,192722.200,4308.4418,N,07726.1805,W,1,08,1.04,148.8,M,-34.4,M,,*59
lng=-77.436302, lat=43.140689, altitude=148.90, speed=33.20, satellites=8, angle=276.6900, fixquality=1
$GPRMC,192722.400,A,4308.4421,N,07726.1831,W,34.13,277.12,040319,,,A*4D
$GPGGA,192722.600,4308.4424,N,07726.1857,W,1,08,1.04,148.8,M,-34.4,M,,*55
lng=-77.436386, lat=43.140697, altitude=148.80, speed=34.13, satellites=8, angle=277.1200, fixquality=1
$GPRMC,192722.800,A,4308.4426,N,07726.1883,W,35.00,277.05,040319,,,A*4A
$GPGGA,192723.000,4308.4429,N,07726.1910,W,1,08,1.12,148.7,M,-34.4,M,,*55
lng=-77.436477, lat=43.140705, altitude=148.80, speed=35.00, satellites=8, angle=277.0500, fixquality=1
$GPRMC,192723.200,A,4308.4432,N,07726.1936,W,35.93,277.20,040319,,,A*46
$GPGGA,192723.400,4308.4435,N,07726.1963,W,1,08,1.12,148.8,M,-34.4,M,,*57
lng=-77.436553, lat=43.140724, altitude=148.70, speed=35.93, satellites=8, angle=277.2000, fixquality=1
$GPRMC,192723.600,A,4308.4438,N,07726.1990,W,36.76,277.51,040319,,,A*4A
$GPGGA,192723.800,4308.4440,N,07726.2018,W,1,08,1.04,148.7,M,-34.4,M,,*57
lng=-77.436653, lat=43.140731, altitude=148.80, speed=36.76, satellites=8, angle=277.5100, fixquality=1
$GPRMC,192724.000,A,4308.4443,N,07726.2045,W,37.43,277.81,040319,,,A*4F
$GPGGA,192724.200,4308.4447,N,07726.2073,W,1,08,1.12,148.7,M,-34.4,M,,*57
lng=-77.436744, lat=43.140739, altitude=148.70, speed=37.43, satellites=8, angle=277.8100, fixquality=1
$GPRMC,192724.400,A,4308.4450,N,07726.2102,W,38.18,277.55,040319,,,A*43
$GPGGA,192724.600,4308.4453,N,07726.2130,W,1,08,1.04,148.7,M,-34.4,M,,*57
lng=-77.436836, lat=43.140747, altitude=148.70, speed=38.18, satellites=8, angle=277.5500, fixquality=1
$GPRMC,192724.800,A,4308.4456,N,07726.2159,W,38.94,277.59,040319,,,A*4F
$GPGGA,192725.000,4308.4459,N,07726.2188,W,1,08,1.12,148.8,M,-34.4,M,,*51
lng=-77.436927, lat=43.140762, altitude=148.70, speed=38.94, satellites=8, angle=277.5900, fixquality=1
$GPRMC,192725.200,A,4308.4462,N,07726.2218,W,39.24,277.34,040319,,,A*44
$GPGGA,192725.400,4308.4465,N,07726.2247,W,1,08,1.12,148.9,M,-34.4,M,,*5B
lng=-77.437026, lat=43.140769, altitude=148.80, speed=39.24, satellites=8, angle=277.3400, fixquality=1
$GPRMC,192725.600,A,4308.4468,N,07726.2277,W,39.72,277.40,040319,,,A*43
$GPGGA,192725.800,4308.4471,N,07726.2307,W,1,08,1.12,149.0,M,-34.4,M,,*5F
lng=-77.437126, lat=43.140781, altitude=148.90, speed=39.72, satellites=8, angle=277.4000, fixquality=1
$GPRMC,192726.000,A,4308.4474,N,07726.2337,W,40.32,277.24,040319,,,A*46
$GPGGA,192726.200,4308.4478,N,07726.2367,W,1,08,1.04,149.1,M,-34.4,M,,*5F
lng=-77.437232, lat=43.140789, altitude=149.00, speed=40.32, satellites=8, angle=277.2400, fixquality=1
$GPRMC,192726.400,A,4308.4481,N,07726.2398,W,40.55,277.02,040319,,,A*48
$GPGGA,192726.600,4308.4484,N,07726.2428,W,1,08,1.04,149.3,M,-34.4,M,,*56
lng=-77.437332, lat=43.140804, altitude=149.10, speed=40.55, satellites=8, angle=277.0200, fixquality=1
$GPRMC,192726.800,A,4308.4487,N,07726.2459,W,41.03,277.01,040319,,,A*49
$GPGGA,192727.000,4308.4490,N,07726.2490,W,1,08,1.12,149.5,M,-34.4,M,,*56
lng=-77.437431, lat=43.140811, altitude=149.30, speed=41.03, satellites=8, angle=277.0100, fixquality=1
$GPRMC,192727.200,A,4308.4493,N,07726.2521,W,41.43,277.37,040319,,,A*48
$GPGGA,192727.400,4308.4496,N,07726.2552,W,1,08,1.12,149.6,M,-34.4,M,,*58
lng=-77.437530, lat=43.140819, altitude=149.50, speed=41.43, satellites=8, angle=277.3700, fixquality=1
$GPRMC,192727.600,A,4308.4499,N,07726.2583,W,41.76,277.39,040319,,,A*46
$GPGGA,192727.800,4308.4502,N,07726.2615,W,1,08,1.12,149.8,M,-34.4,M,,*56
lng=-77.437637, lat=43.140827, altitude=149.60, speed=41.76, satellites=8, angle=277.3900, fixquality=1
$GPRMC,192728.000,A,4308.4505,N,07726.2646,W,42.05,277.55,040319,,,A*4C
$GPGGA,192728.200,4308.4509,N,07726.2678,W,1,08,1.12,149.9,M,-34.4,M,,*52
lng=-77.437744, lat=43.140846, altitude=149.80, speed=42.05, satellites=8, angle=277.5500, fixquality=1
$GPRMC,192728.400,A,4308.4512,N,07726.2710,W,42.25,277.40,040319,,,A*4A
$GPGGA,192728.600,4308.4515,N,07726.2742,W,1,08,1.12,150.0,M,-34.4,M,,*52
lng=-77.437850, lat=43.140853, altitude=149.90, speed=42.25, satellites=8, angle=277.4000, fixquality=1
$GPRMC,192728.800,A,4308.4519,N,07726.2774,W,42.27,277.47,040319,,,A*4A
$GPGGA,192729.000,4308.4522,N,07726.2806,W,1,08,1.12,150.2,M,-34.4,M,,*5C
lng=-77.437957, lat=43.140861, altitude=150.00, speed=42.27, satellites=8, angle=277.4700, fixquality=1
$GPRMC,192729.200,A,4308.4525,N,07726.2837,W,41.65,277.49,040319,,,A*4D
$GPGGA,192729.400,4308.4528,N,07726.2869,W,1,08,1.12,150.4,M,-34.4,M,,*5D
lng=-77.438064, lat=43.140876, altitude=150.20, speed=41.65, satellites=8, angle=277.4900, fixquality=1
$GPRMC,192729.600,A,4308.4532,N,07726.2900,W,41.07,277.56,040319,,,A*40
$GPGGA,192729.800,4308.4535,N,07726.2930,W,1,08,1.04,150.6,M,-34.4,M,,*55
lng=-77.438163, lat=43.140884, altitude=150.40, speed=41.07, satellites=8, angle=277.5600, fixquality=1
$GPRMC,192730.000,A,4308.4538,N,07726.2961,W,40.50,277.89,040319,,,A*42
$GPGGA,192730.200,4308.4541,N,07726.2991,W,1,08,1.12,150.8,M,-34.4,M,,*56
lng=-77.438262, lat=43.140892, altitude=150.60, speed=40.50, satellites=8, angle=277.8900, fixquality=1
$GPRMC,192730.400,A,4308.4544,N,07726.3022,W,39.92,277.92,040319,,,A*48
$GPGGA,192730.600,4308.4548,N,07726.3052,W,1,08,1.12,151.0,M,-34.4,M,,*55
lng=-77.438369, lat=43.140911, altitude=150.80, speed=39.92, satellites=8, angle=277.9200, fixquality=1
$GPRMC,192730.800,A,4308.4551,N,07726.3081,W,39.50,277.94,040319,,,A*41
$GPGGA,192731.000,4308.4554,N,07726.3111,W,1,08,1.12,151.2,M,-34.4,M,,*5B
lng=-77.438468, lat=43.140918, altitude=151.00, speed=39.50, satellites=8, angle=277.9400, fixquality=1
$GPRMC,192731.200,A,4308.4557,N,07726.3140,W,39.70,278.15,040319,,,A*44
$GPGGA,192731.400,4308.4560,N,07726.3170,W,1,08,1.12,151.4,M,-34.4,M,,*59
lng=-77.438568, lat=43.140926, altitude=151.20, speed=39.70, satellites=8, angle=278.1500, fixquality=1
$GPRMC,192731.600,A,4308.4563,N,07726.3200,W,39.85,278.00,040319,,,A*4E
$GPGGA,192731.800,4308.4566,N,07726.3230,W,1,08,1.12,151.6,M,-34.4,M,,*56
lng=-77.438667, lat=43.140933, altitude=151.40, speed=39.85, satellites=8, angle=278.0000, fixquality=1
$GPRMC,192732.000,A,4308.4570,N,07726.3260,W,39.82,278.40,040319,,,A*4C
$GPGGA,192732.200,4308.4573,N,07726.3290,W,1,08,1.12,151.7,M,-34.4,M,,*50
lng=-77.438766, lat=43.140949, altitude=151.60, speed=39.82, satellites=8, angle=278.4000, fixquality=1
$GPRMC,192732.400,A,4308.4577,N,07726.3320,W,39.81,278.73,040319,,,A*49
$GPGGA,192732.600,4308.4580,N,07726.3349,W,1,08,1.12,151.8,M,-34.4,M,,*52
lng=-77.438865, lat=43.140956, altitude=151.70, speed=39.81, satellites=8, angle=278.7300, fixquality=1
$GPRMC,192732.800,A,4308.4583,N,07726.3379,W,39.45,278.93,040319,,,A*44
$GPGGA,192733.000,4308.4587,N,07726.3409,W,1,08,1.04,151.9,M,-34.4,M,,*57
lng=-77.438964, lat=43.140975, altitude=151.80, speed=39.45, satellites=8, angle=278.9300, fixquality=1
$GPRMC,192733.200,A,4308.4590,N,07726.3438,W,38.63,278.75,040319,,,A*42
$GPGGA,192733.400,4308.4593,N,07726.3467,W,1,08,1.12,152.0,M,-34.4,M,,*53
lng=-77.439064, lat=43.140983, altitude=151.90, speed=38.63, satellites=8, angle=278.7500, fixquality=1
$GPRMC,192733.600,A,4308.4596,N,07726.3495,W,37.46,278.78,040319,,,A*42
$GPGGA,192733.800,4308.4599,N,07726.3523,W,1,08,1.04,152.0,M,-34.4,M,,*53
lng=-77.439163, lat=43.140991, altitude=152.00, speed=37.46, satellites=8, angle=278.7800, fixquality=1
$GPRMC,192734.000,A,4308.4602,N,07726.3551,W,36.41,278.73,040319,,,A*49
$GPGGA,192734.200,4308.4605,N,07726.3578,W,1,08,1.12,151.9,M,-34.4,M,,*5B
lng=-77.439247, lat=43.140998, altitude=152.00, speed=36.41, satellites=8, angle=278.7300, fixquality=1
$GPRMC,192734.400,A,4308.4608,N,07726.3604,W,34.95,278.70,040319,,,A*4C
$GPGGA,192734.600,4308.4611,N,07726.3630,W,1,08,1.04,151.9,M,-34.4,M,,*52
lng=-77.439338, lat=43.141014, altitude=151.90, speed=34.95, satellites=8, angle=278.7000, fixquality=1
$GPRMC,192734.800,A,4308.4614,N,07726.3656,W,34.11,278.24,040319,,,A*47
$GPGGA,192735.000,4308.4616,N,07726.3680,W,1,08,1.04,151.5,M,-34.4,M,,*55
lng=-77.439430, lat=43.141025, altitude=151.90, speed=34.11, satellites=8, angle=278.2400, fixquality=1
$GPRMC,192735.200,A,4308.4619,N,07726.3705,W,32.47,278.37,040319,,,A*41
$GPGGA,192735.400,4308.4622,N,07726.3729,W,1,08,1.04,151.3,M,-34.4,M,,*52
lng=-77.439506, lat=43.141033, altitude=151.50, speed=32.47, satellites=8, angle=278.3700, fixquality=1
$GPRMC,192735.600,A,4308.4624,N,07726.3752,W,31.12,278.10,040319,,,A*4F
$GPGGA,192735.800,4308.4626,N,07726.3775,W,1,08,1.12,151.0,M,-34.4,M,,*57
lng=-77.439582, lat=43.141040, altitude=151.30, speed=31.12, satellites=8, angle=278.1000, fixquality=1
$GPRMC,192736.000,A,4308.4628,N,07726.3797,W,29.60,277.56,040319,,,A*4E
$GPGGA,192736.200,4308.4630,N,07726.3819,W,1,08,1.12,150.7,M,-34.4,M,,*5A
lng=-77.439666, lat=43.141048, altitude=151.00, speed=29.60, satellites=8, angle=277.5600, fixquality=1
$GPRMC,192736.400,A,4308.4633,N,07726.3841,W,28.32,277.35,040319,,,A*47
$GPGGA,192736.600,4308.4635,N,07726.3861,W,1,08,1.12,150.5,M,-34.4,M,,*56
lng=-77.439735, lat=43.141056, altitude=150.70, speed=28.32, satellites=8, angle=277.3500, fixquality=1
$GPRMC,192736.800,A,4308.4637,N,07726.3882,W,26.96,277.31,040319,,,A*44
$GPGGA,192737.000,4308.4639,N,07726.3902,W,1,08,1.12,150.4,M,-34.4,M,,*58
lng=-77.439804, lat=43.141063, altitude=150.50, speed=26.96, satellites=8, angle=277.3100, fixquality=1
$GPRMC,192737.200,A,4308.4641,N,07726.3921,W,26.18,277.36,040319,,,A*47
$GPGGA,192737.400,4308.4642,N,07726.3940,W,1,08,1.12,150.2,M,-34.4,M,,*50
lng=-77.439865, lat=43.141063, altitude=150.40, speed=26.18, satellites=8, angle=277.3600, fixquality=1
$GPRMC,192737.600,A,4308.4644,N,07726.3960,W,25.81,277.22,040319,,,A*45
$GPGGA,192737.800,4308.4646,N,07726.3979,W,1,08,1.12,150.0,M,-34.4,M,,*50
lng=-77.439933, lat=43.141071, altitude=150.20, speed=25.81, satellites=8, angle=277.2200, fixquality=1
$GPRMC,192738.000,A,4308.4648,N,07726.3998,W,25.78,277.33,040319,,,A*41
$GPGGA,192738.200,4308.4650,N,07726.4017,W,1,08,1.12,149.9,M,-34.4,M,,*55
lng=-77.439994, lat=43.141078, altitude=150.00, speed=25.78, satellites=8, angle=277.3300, fixquality=1
$GPRMC,192738.400,A,4308.4652,N,07726.4036,W,25.71,277.65,040319,,,A*4E
$GPGGA,192738.600,4308.4654,N,07726.4055,W,1,08,1.12,149.7,M,-34.4,M,,*5D
lng=-77.440063, lat=43.141090, altitude=149.90, speed=25.71, satellites=8, angle=277.6500, fixquality=1
$GPRMC,192738.800,A,4308.4656,N,07726.4074,W,25.41,277.84,040319,,,A*4C
$GPGGA,192739.000,4308.4658,N,07726.4093,W,1,08,1.12,149.6,M,-34.4,M,,*5D
lng=-77.440116, lat=43.141098, altitude=149.70, speed=25.41, satellites=8, angle=277.8400, fixquality=1
$GPRMC,192739.200,A,4308.4660,N,07726.4112,W,24.77,277.69,040319,,,A*44
$GPGGA,192739.400,4308.4662,N,07726.4130,W,1,08,1.12,149.5,M,-34.4,M,,*5B
lng=-77.440185, lat=43.141098, altitude=149.60, speed=24.77, satellites=8, angle=277.6900, fixquality=1
$GPRMC,192739.600,A,4308.4664,N,07726.4148,W,24.02,277.44,040319,,,A*46
$GPGGA,192739.800,4308.4665,N,07726.4166,W,1,08,1.12,149.4,M,-34.4,M,,*52
lng=-77.440254, lat=43.141105, altitude=149.50, speed=24.02, satellites=8, angle=277.4400, fixquality=1
$GPRMC,192740.000,A,4308.4667,N,07726.4183,W,23.16,277.51,040319,,,A*4C
$GPGGA,192740.200,4308.4669,N,07726.4200,W,1,08,1.12,149.4,M,-34.4,M,,*59
lng=-77.440307, lat=43.141113, altitude=149.40, speed=23.16, satellites=8, angle=277.5100, fixquality=1
$GPRMC,192740.400,A,4308.4671,N,07726.4217,W,21.84,277.66,040319,,,A*4C
$GPGGA,192740.600,4308.4673,N,07726.4233,W,1,08,1.12,149.3,M,-34.4,M,,*51
lng=-77.440361, lat=43.141120, altitude=149.40, speed=21.84, satellites=8, angle=277.6600, fixquality=1
$GPRMC,192740.800,A,4308.4674,N,07726.4249,W,20.90,277.32,040319,,,A*4B
$GPGGA,192741.000,4308.4676,N,07726.4264,W,1,08,1.12,149.3,M,-34.4,M,,*51
lng=-77.440414, lat=43.141120, altitude=149.30, speed=20.90, satellites=8, angle=277.3200, fixquality=1
$GPRMC,192741.200,A,4308.4678,N,07726.4280,W,20.43,278.12,040319,,,A*4A
$GPGGA,192741.400,4308.4679,N,07726.4295,W,1,08,1.12,149.3,M,-34.4,M,,*54
lng=-77.440467, lat=43.141128, altitude=149.30, speed=20.43, satellites=8, angle=278.1200, fixquality=1
$GPRMC,192741.600,A,4308.4681,N,07726.4310,W,20.19,277.95,040319,,,A*4F
$GPGGA,192741.800,4308.4683,N,07726.4325,W,1,08,1.12,149.3,M,-34.4,M,,*57
lng=-77.440521, lat=43.141136, altitude=149.30, speed=20.19, satellites=8, angle=277.9500, fixquality=1
$GPRMC,192742.000,A,4308.4684,N,07726.4340,W,19.82,278.27,040319,,,A*44
$GPGGA,192742.200,4308.4686,N,07726.4355,W,1,08,1.12,149.2,M,-34.4,M,,*5D
lng=-77.440567, lat=43.141136, altitude=149.30, speed=19.82, satellites=8, angle=278.2700, fixquality=1
$GPRMC,192742.400,A,4308.4688,N,07726.4369,W,19.51,277.97,040319,,,A*4D
$GPGGA,192742.600,4308.4689,N,07726.4384,W,1,08,1.12,149.3,M,-34.4,M,,*5B
lng=-77.440620, lat=43.141147, altitude=149.20, speed=19.51, satellites=8, angle=277.9700, fixquality=1
$GPRMC,192742.800,A,4308.4691,N,07726.4398,W,19.24,278.22,040319,,,A*44
$GPGGA,192743.000,4308.4692,N,07726.4413,W,1,08,1.12,149.3,M,-34.4,M,,*5F
lng=-77.440666, lat=43.141155, altitude=149.30, speed=19.24, satellites=8, angle=278.2200, fixquality=1
$GPRMC,192743.200,A,4308.4694,N,07726.4427,W,19.00,276.84,040319,,,A*4D
$GPGGA,192743.400,4308.4695,N,07726.4441,W,1,08,1.12,149.2,M,-34.4,M,,*5A
lng=-77.440711, lat=43.141155, altitude=149.30, speed=19.00, satellites=8, angle=276.8400, fixquality=1
$GPRMC,192743.600,A,4308.4696,N,07726.4455,W,18.78,272.82,040319,,,A*42
$GPGGA,192743.800,4308.4696,N,07726.4469,W,1,08,1.04,149.2,M,-34.4,M,,*58
lng=-77.440757, lat=43.141162, altitude=149.20, speed=18.78, satellites=8, angle=272.8200, fixquality=1
$GPRMC,192744.000,A,4308.4695,N,07726.4483,W,18.37,265.41,040319,,,A*49
$GPGGA,192744.200,4308.4694,N,07726.4497,W,1,08,1.04,149.2,M,-34.4,M,,*56
lng=-77.440803, lat=43.141162, altitude=149.20, speed=18.37, satellites=8, angle=265.4100, fixquality=1
$GPRMC,192744.400,A,4308.4692,N,07726.4510,W,18.10,257.13,040319,,,A*42
$GPGGA,192744.600,4308.4690,N,07726.4523,W,1,08,1.04,149.2,M,-34.4,M,,*58
lng=-77.440849, lat=43.141155, altitude=149.20, speed=18.10, satellites=8, angle=257.1300, fixquality=1
$GPRMC,192744.800,A,4308.4687,N,07726.4535,W,17.59,250.12,040319,,,A*49
$GPGGA,192745.000,4308.4683,N,07726.4548,W,1,08,1.12,149.1,M,-34.4,M,,*54
lng=-77.440895, lat=43.141147, altitude=149.20, speed=17.59, satellites=8, angle=250.1200, fixquality=1
$GPRMC,192745.200,A,4308.4679,N,07726.4559,W,17.24,244.27,040319,,,A*40
$GPGGA,192745.400,4308.4675,N,07726.4571,W,1,08,1.04,149.1,M,-34.4,M,,*54
lng=-77.440933, lat=43.141128, altitude=149.10, speed=17.24, satellites=8, angle=244.2700, fixquality=1
$GPRMC,192745.600,A,4308.4670,N,07726.4583,W,17.10,242.00,040319,,,A*4E
$GPGGA,192745.800,4308.4666,N,07726.4594,W,1,08,1.04,149.1,M,-34.4,M,,*51
lng=-77.440971, lat=43.141113, altitude=149.10, speed=17.10, satellites=8, angle=242.0000, fixquality=1
$GPRMC,192746.000,A,4308.4660,N,07726.4605,W,17.15,239.28,040319,,,A*44
$GPGGA,192746.200,4308.4653,N,07726.4614,W,1,08,1.04,149.0,M,-34.4,M,,*54
lng=-77.441009, lat=43.141098, altitude=149.10, speed=17.15, satellites=8, angle=239.2800, fixquality=1
$GPRMC,192746.400,A,4308.4647,N,07726.4623,W,17.10,231.63,040319,,,A*43
$GPGGA,192746.600,4308.4640,N,07726.4632,W,1,08,1.04,149.0,M,-34.4,M,,*56
lng=-77.441040, lat=43.141078, altitude=149.00, speed=17.10, satellites=8, angle=231.6300, fixquality=1
$GPRMC,192746.800,A,4308.4632,N,07726.4641,W,17.10,225.15,040319,,,A*4D
$GPGGA,192747.000,4308.4624,N,07726.4649,W,1,08,1.04,149.0,M,-34.4,M,,*5F
lng=-77.441062, lat=43.141056, altitude=149.00, speed=17.10, satellites=8, angle=225.1500, fixquality=1
$GPRMC,192747.200,A,4308.4616,N,07726.4657,W,17.66,220.67,040319,,,A*46
$GPGGA,192747.400,4308.4608,N,07726.4666,W,1,08,1.04,149.0,M,-34.4,M,,*58
lng=-77.441093, lat=43.141025, altitude=149.00, speed=17.66, satellites=8, angle=220.6700, fixquality=1
$GPRMC,192747.600,A,4308.4600,N,07726.4674,W,18.09,218.99,040319,,,A*48
$GPGGA,192747.800,4308.4591,N,07726.4682,W,1,08,1.04,149.0,M,-34.4,M,,*5D
lng=-77.441123, lat=43.140998, altitude=149.00, speed=18.09, satellites=8, angle=218.9900, fixquality=1
$GPRMC,192748.000,A,4308.4581,N,07726.4688,W,19.18,213.84,040319,,,A*4E
$GPGGA,192748.200,4308.4568,N,07726.4692,W,1,08,1.04,149.0,M,-34.4,M,,*5F
lng=-77.441146, lat=43.140968, altitude=149.00, speed=19.18, satellites=8, angle=213.8400, fixquality=1
$GPRMC,192748.400,A,4308.4557,N,07726.4698,W,20.67,206.15,040319,,,A*4E
$GPGGA,192748.600,4308.4545,N,07726.4704,W,1,08,1.04,149.0,M,-34.4,M,,*5A
lng=-77.441162, lat=43.140926, altitude=149.00, speed=20.67, satellites=8, angle=206.1500, fixquality=1
$GPRMC,192748.800,A,4308.4533,N,07726.4709,W,21.90,203.24,040319,,,A*47
$GPGGA,192749.000,4308.4520,N,07726.4713,W,1,08,1.04,149.0,M,-34.4,M,,*58
lng=-77.441177, lat=43.140884, altitude=149.00, speed=21.90, satellites=8, angle=203.2400, fixquality=1
$GPRMC,192749.200,A,4308.4507,N,07726.4718,W,23.37,200.87,040319,,,A*4E
$GPGGA,192749.400,4308.4494,N,07726.4723,W,1,08,1.04,149.0,M,-34.4,M,,*51
lng=-77.441192, lat=43.140846, altitude=149.00, speed=23.37, satellites=8, angle=200.8700, fixquality=1
$GPRMC,192749.600,A,4308.4481,N,07726.4728,W,24.25,199.53,040319,,,A*48
$GPGGA,192749.800,4308.4467,N,07726.4733,W,1,08,1.04,148.9,M,-34.4,M,,*58
lng=-77.441207, lat=43.140804, altitude=149.00, speed=24.25, satellites=8, angle=199.5300, fixquality=1
$GPRMC,192750.000,A,4308.4453,N,07726.4737,W,25.24,198.49,040319,,,A*4D
$GPGGA,192750.200,4308.4438,N,07726.4742,W,1,08,1.04,148.9,M,-34.4,M,,*56
lng=-77.441230, lat=43.140754, altitude=148.90, speed=25.24, satellites=8, angle=198.4900, fixquality=1
$GPRMC,192750.400,A,4308.4424,N,07726.4746,W,26.40,198.01,040319,,,A*42
$GPGGA,192750.600,4308.4409,N,07726.4751,W,1,08,1.04,148.9,M,-34.4,M,,*52
lng=-77.441246, lat=43.140705, altitude=148.90, speed=26.40, satellites=8, angle=198.0100, fixquality=1
$GPRMC,192750.800,A,4308.4394,N,07726.4757,W,27.27,198.62,040319,,,A*47
$GPGGA,192751.000,4308.4379,N,07726.4763,W,1,08,1.04,148.8,M,-34.4,M,,*55
lng=-77.441261, lat=43.140659, altitude=148.90, speed=27.27, satellites=8, angle=198.6200, fixquality=1
$GPRMC,192751.200,A,4308.4364,N,07726.4769,W,27.83,199.10,040319,,,A*44
$GPGGA,192751.400,4308.4348,N,07726.4775,W,1,08,1.04,148.8,M,-34.4,M,,*54
lng=-77.441284, lat=43.140609, altitude=148.80, speed=27.83, satellites=8, angle=199.1000, fixquality=1
$GPRMC,192751.600,A,4308.4332,N,07726.4782,W,29.23,198.96,040319,,,A*4D
$GPGGA,192751.800,4308.4317,N,07726.4788,W,1,08,1.04,148.8,M,-34.4,M,,*50
lng=-77.441299, lat=43.140552, altitude=148.80, speed=29.23, satellites=8, angle=198.9600, fixquality=1
$GPRMC,192752.000,A,4308.4301,N,07726.4795,W,29.63,198.89,040319,,,A*44
$GPGGA,192752.200,4308.4285,N,07726.4801,W,1,08,1.04,148.8,M,-34.4,M,,*5D
lng=-77.441322, lat=43.140502, altitude=148.80, speed=29.63, satellites=8, angle=198.8900, fixquality=1
$GPRMC,192752.400,A,4308.4269,N,07726.4807,W,30.00,198.67,040319,,,A*46
$GPGGA,192752.600,4308.4253,N,07726.4814,W,1,08,1.04,148.7,M,-34.4,M,,*59
lng=-77.441337, lat=43.140445, altitude=148.80, speed=30.00, satellites=8, angle=198.6700, fixquality=1
$GPRMC,192752.800,A,4308.4237,N,07726.4822,W,30.34,198.56,040319,,,A*43
$GPGGA,192753.000,4308.4220,N,07726.4829,W,1,08,1.12,148.7,M,-34.4,M,,*53
lng=-77.441375, lat=43.140396, altitude=148.70, speed=30.34, satellites=8, angle=198.5600, fixquality=1
$GPRMC,192753.200,A,4308.4204,N,07726.4836,W,30.79,198.90,040319,,,A*4E
$GPGGA,192753.400,4308.4187,N,07726.4843,W,1,08,1.12,148.6,M,-34.4,M,,*54
lng=-77.441390, lat=43.140338, altitude=148.70, speed=30.79, satellites=8, angle=198.9000, fixquality=1
$GPRMC,192753.600,A,4308.4171,N,07726.4851,W,31.05,199.61,040319,,,A*4F
$GPGGA,192753.800,4308.4154,N,07726.4859,W,1,08,1.04,148.6,M,-34.4,M,,*5A
lng=-77.441413, lat=43.140281, altitude=148.60, speed=31.05, satellites=8, angle=199.6100, fixquality=1
$GPRMC,192754.000,A,4308.4138,N,07726.4866,W,31.51,199.36,040319,,,A*44
$GPGGA,192754.200,4308.4121,N,07726.4873,W,1,08,1.04,148.5,M,-34.4,M,,*5E
lng=-77.441444, lat=43.140224, altitude=148.60, speed=31.51, satellites=8, angle=199.3600, fixquality=1
$GPRMC,192754.400,A,4308.4104,N,07726.4880,W,31.79,199.18,040319,,,A*41
$GPGGA,192754.600,4308.4087,N,07726.4888,W,1,08,1.04,148.5,M,-34.4,M,,*53
lng=-77.441459, lat=43.140171, altitude=148.50, speed=31.79, satellites=8, angle=199.1800, fixquality=1
$GPRMC,192754.800,A,4308.4069,N,07726.4895,W,32.27,198.74,040319,,,A*40
$GPGGA,192755.000,4308.4052,N,07726.4902,W,1,08,1.04,148.4,M,-34.4,M,,*5E
lng=-77.441490, lat=43.140113, altitude=148.50, speed=32.27, satellites=8, angle=198.7400, fixquality=1
$GPRMC,192755.200,A,4308.4034,N,07726.4909,W,32.71,198.29,040319,,,A*4C
$GPGGA,192755.400,4308.4016,N,07726.4916,W,1,08,1.04,148.4,M,-34.4,M,,*5F
lng=-77.441513, lat=43.140056, altitude=148.40, speed=32.71, satellites=8, angle=198.2900, fixquality=1
$GPRMC,192755.600,A,4308.3999,N,07726.4924,W,33.06,197.89,040319,,,A*4A
$GPGGA,192755.800,4308.3981,N,07726.4931,W,1,08,1.04,148.3,M,-34.4,M,,*51
lng=-77.441535, lat=43.139999, altitude=148.40, speed=33.06, satellites=8, angle=197.8900, fixquality=1
$GPRMC,192756.000,A,4308.3963,N,07726.4937,W,33.38,197.22,040319,,,A*44
$GPGGA,192756.200,4308.3945,N,07726.4943,W,1,08,1.04,148.2,M,-34.4,M,,*54
lng=-77.441558, lat=43.139942, altitude=148.30, speed=33.38, satellites=8, angle=197.2200, fixquality=1
$GPRMC,192756.400,A,4308.3926,N,07726.4950,W,33.68,196.32,040319,,,A*45
$GPGGA,192756.600,4308.3908,N,07726.4956,W,1,08,1.04,148.1,M,-34.4,M,,*5E
lng=-77.441581, lat=43.139877, altitude=148.20, speed=33.68, satellites=8, angle=196.3200, fixquality=1
$GPRMC,192756.800,A,4308.3889,N,07726.4962,W,34.28,195.08,040319,,,A*45
$GPGGA,192757.000,4308.3870,N,07726.4968,W,1,08,1.04,148.1,M,-34.4,M,,*5A
lng=-77.441604, lat=43.139812, altitude=148.10, speed=34.28, satellites=8, angle=195.0800, fixquality=1
$GPRMC,192757.200,A,4308.3851,N,07726.4974,W,34.71,194.28,040319,,,A*43
$GPGGA,192757.400,4308.3832,N,07726.4980,W,1,08,1.04,147.9,M,-34.4,M,,*59
lng=-77.441627, lat=43.139755, altitude=148.10, speed=34.71, satellites=8, angle=194.2800, fixquality=1
$GPRMC,192757.600,A,4308.3813,N,07726.4986,W,34.76,193.87,040319,,,A*49
$GPGGA,192757.800,4308.3794,N,07726.4992,W,1,08,1.04,147.8,M,-34.4,M,,*54
lng=-77.441642, lat=43.139690, altitude=147.90, speed=34.76, satellites=8, angle=193.8700, fixquality=1
$GPRMC,192758.000,A,4308.3775,N,07726.4998,W,34.89,193.54,040319,,,A*4E
$GPGGA,192758.200,4308.3756,N,07726.5003,W,1,08,1.04,147.7,M,-34.4,M,,*50
lng=-77.441665, lat=43.139625, altitude=147.80, speed=34.89, satellites=8, angle=193.5400, fixquality=1
$GPRMC,192758.400,A,4308.3736,N,07726.5008,W,35.23,191.89,040319,,,A*4F
$GPGGA,192758.600,4308.3717,N,07726.5013,W,1,08,1.04,147.6,M,-34.4,M,,*51
lng=-77.441680, lat=43.139560, altitude=147.70, speed=35.23, satellites=8, angle=191.8900, fixquality=1
$GPRMC,192758.800,A,4308.3697,N,07726.5018,W,35.61,191.07,040319,,,A*48
$GPGGA,192759.000,4308.3678,N,07726.5023,W,1,08,1.04,147.6,M,-34.4,M,,*5D
lng=-77.441696, lat=43.139492, altitude=147.60, speed=35.61, satellites=8, angle=191.0700, fixquality=1
$GPRMC,192759.200,A,4308.3658,N,07726.5028,W,35.74,191.10,040319,,,A*41
$GPGGA,192759.400,4308.3638,N,07726.5032,W,1,08,1.04,147.5,M,-34.4,M,,*5E
lng=-77.441719, lat=43.139427, altitude=147.60, speed=35.74, satellites=8, angle=191.1000, fixquality=1
$GPRMC,192759.600,A,4308.3617,N,07726.5036,W,36.34,190.71,040319,,,A*40
$GPGGA,192759.800,4308.3597,N,07726.5040,W,1,08,1.04,147.4,M,-34.4,M,,*50
lng=-77.441726, lat=43.139362, altitude=147.50, speed=36.34, satellites=8, angle=190.7100, fixquality=1
$GPRMC,192800.000,A,4308.3577,N,07726.5044,W,36.54,189.15,040319,,,A*49
$GPGGA,192800.200,4308.3556,N,07726.5048,W,1,08,1.04,147.3,M,-34.4,M,,*5B
lng=-77.441741, lat=43.139297, altitude=147.40, speed=36.54, satellites=8, angle=189.1500, fixquality=1
$GPRMC,192800.400,A,4308.3536,N,07726.5052,W,36.74,188.86,040319,,,A*46
$GPGGA,192800.600,4308.3516,N,07726.5056,W,1,08,1.04,147.3,M,-34.4,M,,*54
lng=-77.441757, lat=43.139225, altitude=147.30, speed=36.74, satellites=8, angle=188.8600, fixquality=1
$GPRMC,192800.800,A,4308.3495,N,07726.5060,W,37.01,188.52,040319,,,A*49
$GPGGA,192801.000,4308.3474,N,07726.5064,W,1,08,1.04,147.3,M,-34.4,M,,*57
lng=-77.441764, lat=43.139160, altitude=147.30, speed=37.01, satellites=8, angle=188.5200, fixquality=1
$GPRMC,192801.200,A,4308.3453,N,07726.5067,W,37.10,187.51,040319,,,A*43
$GPGGA,192801.400,4308.3432,N,07726.5070,W,1,08,1.12,147.3,M,-34.4,M,,*53
lng=-77.441780, lat=43.139087, altitude=147.30, speed=37.10, satellites=8, angle=187.5100, fixquality=1
$GPRMC,192801.600,A,4308.3411,N,07726.5073,W,37.26,186.32,040319,,,A*45
$GPGGA,192801.800,4308.3390,N,07726.5076,W,1,08,1.04,147.4,M,-34.4,M,,*56
lng=-77.441787, lat=43.139022, altitude=147.30, speed=37.26, satellites=8, angle=186.3200, fixquality=1
$GPRMC,192802.000,A,4308.3369,N,07726.5077,W,37.39,185.08,040319,,,A*48
$GPGGA,192802.200,4308.3347,N,07726.5079,W,1,08,1.04,147.6,M,-34.4,M,,*58
lng=-77.441795, lat=43.138950, altitude=147.40, speed=37.39, satellites=8, angle=185.0800, fixquality=1
$GPRMC,192802.400,A,4308.3326,N,07726.5081,W,37.54,184.68,040319,,,A*42
$GPGGA,192802.600,4308.3305,N,07726.5083,W,1,08,1.04,147.7,M,-34.4,M,,*5E
lng=-77.441802, lat=43.138874, altitude=147.60, speed=37.54, satellites=8, angle=184.6800, fixquality=1
$GPRMC,192802.800,A,4308.3284,N,07726.5085,W,38.17,184.12,040319,,,A*46
$GPGGA,192803.000,4308.3262,N,07726.5086,W,1,07,1.13,147.7,M,-34.4,M,,*55
lng=-77.441802, lat=43.138809, altitude=147.70, speed=38.17, satellites=8, angle=184.1200, fixquality=1
$GPRMC,192803.200,A,4308.3241,N,07726.5088,W,38.38,183.82,040319,,,A*4A
$GPGGA,192803.400,4308.3219,N,07726.5090,W,1,08,1.12,147.8,M,-34.4,M,,*5B
lng=-77.441810, lat=43.138736, altitude=147.70, speed=38.38, satellites=7, angle=183.8200, fixquality=1
$GPRMC,192803.600,A,4308.3197,N,07726.5092,W,38.83,183.50,040319,,,A*42
$GPGGA,192803.800,4308.3175,N,07726.5093,W,1,08,1.04,148.0,M,-34.4,M,,*5D
lng=-77.441818, lat=43.138664, altitude=147.80, speed=38.83, satellites=8, angle=183.5000, fixquality=1
$GPRMC,192804.000,A,4308.3153,N,07726.5095,W,39.14,183.20,040319,,,A*44
$GPGGA,192804.200,4308.3131,N,07726.5096,W,1,08,1.12,148.1,M,-34.4,M,,*53
lng=-77.441818, lat=43.138591, altitude=148.00, speed=39.14, satellites=8, angle=183.2000, fixquality=1
$GPRMC,192804.400,A,4308.3109,N,07726.5098,W,39.34,182.86,040319,,,A*4D
$GPGGA,192804.600,4308.3087,N,07726.5099,W,1,08,1.04,148.2,M,-34.4,M,,*50
lng=-77.441825, lat=43.138515, altitude=148.10, speed=39.34, satellites=8, angle=182.8600, fixquality=1
$GPRMC,192804.800,A,4308.3065,N,07726.5101,W,39.51,182.47,040319,,,A*45
$GPGGA,192805.000,4308.3042,N,07726.5102,W,1,08,1.12,148.4,M,-34.4,M,,*5C
lng=-77.441841, lat=43.138442, altitude=148.20, speed=39.51, satellites=8, angle=182.4700, fixquality=1
$GPRMC,192805.200,A,4308.3020,N,07726.5104,W,39.86,182.50,040319,,,A*46
$GPGGA,192805.400,4308.2998,N,07726.5105,W,1,08,1.12,148.5,M,-34.4,M,,*51
lng=-77.441841, lat=43.138362, altitude=148.40, speed=39.86, satellites=8, angle=182.5000, fixquality=1
$GPRMC,192805.600,A,4308.2976,N,07726.5106,W,40.09,181.91,040319,,,A*4C
$GPGGA,192805.800,4308.2953,N,07726.5108,W,1,08,1.04,148.7,M,-34.4,M,,*52
lng=-77.441848, lat=43.138290, altitude=148.50, speed=40.09, satellites=8, angle=181.9100, fixquality=1
$GPRMC,192806.000,A,4308.2931,N,07726.5108,W,40.33,181.33,040319,,,A*45
$GPGGA,192806.200,4308.2908,N,07726.5109,W,1,08,1.04,148.8,M,-34.4,M,,*5B
lng=-77.441848, lat=43.138217, altitude=148.70, speed=40.33, satellites=8, angle=181.3300, fixquality=1
$GPRMC,192806.400,A,4308.2886,N,07726.5111,W,40.32,181.46,040319,,,A*47
$GPGGA,192806.600,4308.2863,N,07726.5111,W,1,08,1.04,148.9,M,-34.4,M,,*5B
lng=-77.441856, lat=43.138141, altitude=148.80, speed=40.32, satellites=8, angle=181.4600, fixquality=1
$GPRMC,192806.800,A,4308.2840,N,07726.5112,W,40.67,180.76,040319,,,A*40
$GPGGA,192807.000,4308.2818,N,07726.5112,W,1,08,1.04,149.0,M,-34.4,M,,*5B
lng=-77.441856, lat=43.138069, altitude=148.90, speed=40.67, satellites=8, angle=180.7600, fixquality=1
$GPRMC,192807.200,A,4308.2795,N,07726.5113,W,40.67,180.75,040319,,,A*4E
$GPGGA,192807.400,4308.2772,N,07726.5113,W,1,08,1.04,149.1,M,-34.4,M,,*5C
lng=-77.441856, lat=43.137989, altitude=149.00, speed=40.67, satellites=8, angle=180.7500, fixquality=1
$GPRMC,192807.600,A,4308.2749,N,07726.5114,W,40.90,180.81,040319,,,A*4F
$GPGGA,192807.800,4308.2726,N,07726.5114,W,1,08,1.04,149.3,M,-34.4,M,,*54
lng=-77.441856, lat=43.137916, altitude=149.10, speed=40.90, satellites=8, angle=180.8100, fixquality=1
$GPRMC,192808.000,A,4308.2703,N,07726.5115,W,41.09,180.83,040319,,,A*4A
$GPGGA,192808.200,4308.2680,N,07726.5116,W,1,08,1.04,149.4,M,-34.4,M,,*59
lng=-77.441864, lat=43.137840, altitude=149.30, speed=41.09, satellites=8, angle=180.8300, fixquality=1
$GPRMC,192808.400,A,4308.2656,N,07726.5116,W,41.40,180.62,040319,,,A*4E
$GPGGA,192808.600,4308.2633,N,07726.5116,W,1,08,1.04,149.5,M,-34.4,M,,*54
lng=-77.441864, lat=43.137760, altitude=149.40, speed=41.40, satellites=8, angle=180.6200, fixquality=1
$GPRMC,192808.800,A,4308.2610,N,07726.5117,W,41.45,180.64,040319,,,A*42
$GPGGA,192809.000,4308.2587,N,07726.5117,W,1,08,1.04,149.6,M,-34.4,M,,*5D
lng=-77.441864, lat=43.137687, altitude=149.50, speed=41.45, satellites=8, angle=180.6400, fixquality=1
$GPRMC,192809.200,A,4308.2563,N,07726.5117,W,41.46,180.31,040319,,,A*4D
$GPGGA,192809.400,4308.2540,N,07726.5117,W,1,08,1.04,149.7,M,-34.4,M,,*53
lng=-77.441864, lat=43.137607, altitude=149.60, speed=41.46, satellites=8, angle=180.3100, fixquality=1
$GPRMC,192809.600,A,4308.2517,N,07726.5118,W,41.27,180.43,040319,,,A*47
$GPGGA,192809.800,4308.2495,N,07726.5119,W,1,08,1.04,149.8,M,-34.4,M,,*57
lng=-77.441864, lat=43.137523, altitude=149.70, speed=41.27, satellites=8, angle=180.4300, fixquality=1
$GPRMC,192810.000,A,4308.2472,N,07726.5119,W,40.77,180.76,040319,,,A*48
$GPGGA,192810.200,4308.2450,N,07726.5120,W,1,08,1.04,149.9,M,-34.4,M,,*57
lng=-77.441864, lat=43.137451, altitude=149.80, speed=40.77, satellites=8, angle=180.7600, fixquality=1
$GPRMC,192810.400,A,4308.2427,N,07726.5121,W,40.46,180.69,040319,,,A*4B
$GPGGA,192810.600,4308.2405,N,07726.5121,W,1,08,1.04,150.0,M,-34.4,M,,*53
lng=-77.441871, lat=43.137378, altitude=149.90, speed=40.46, satellites=8, angle=180.6900, fixquality=1
$GPRMC,192810.800,A,4308.2383,N,07726.5122,W,40.09,180.89,040319,,,A*48
$GPGGA,192811.000,4308.2360,N,07726.5122,W,1,08,1.04,150.1,M,-34.4,M,,*52
lng=-77.441871, lat=43.137306, altitude=150.00, speed=40.09, satellites=8, angle=180.8900, fixquality=1
$GPRMC,192811.200,A,4308.2338,N,07726.5122,W,39.97,180.68,040319,,,A*45
$GPGGA,192811.400,4308.2317,N,07726.5123,W,1,08,1.04,150.2,M,-34.4,M,,*54
lng=-77.441871, lat=43.137229, altitude=150.10, speed=39.97, satellites=8, angle=180.6800, fixquality=1
$GPRMC,192811.600,A,4308.2295,N,07726.5124,W,39.08,181.26,040319,,,A*4C
$GPGGA,192811.800,4308.2274,N,07726.5125,W,1,08,1.04,150.3,M,-34.4,M,,*5B
lng=-77.441871, lat=43.137157, altitude=150.20, speed=39.08, satellites=8, angle=181.2600, fixquality=1
$GPRMC,192812.000,A,4308.2252,N,07726.5126,W,38.62,181.19,040319,,,A*41
$GPGGA,192812.200,4308.2231,N,07726.5127,W,1,08,1.04,150.4,M,-34.4,M,,*56
lng=-77.441879, lat=43.137084, altitude=150.30, speed=38.62, satellites=8, angle=181.1900, fixquality=1
$GPRMC,192812.400,A,4308.2210,N,07726.5128,W,38.53,181.19,040319,,,A*4F
$GPGGA,192812.600,4308.2189,N,07726.5129,W,1,08,1.04,150.5,M,-34.4,M,,*5D
lng=-77.441879, lat=43.137020, altitude=150.40, speed=38.53, satellites=8, angle=181.1900, fixquality=1
$GPRMC,192812.800,A,4308.2167,N,07726.5130,W,38.55,181.30,040319,,,A*44
$GPGGA,192813.000,4308.2146,N,07726.5130,W,1,08,1.04,150.6,M,-34.4,M,,*52
lng=-77.441886, lat=43.136947, altitude=150.50, speed=38.55, satellites=8, angle=181.3000, fixquality=1
$GPRMC,192813.200,A,4308.2124,N,07726.5131,W,38.95,181.39,040319,,,A*4C
$GPGGA,192813.400,4308.2102,N,07726.5132,W,1,08,1.04,150.7,M,-34.4,M,,*55
lng=-77.441886, lat=43.136875, altitude=150.60, speed=38.95, satellites=8, angle=181.3900, fixquality=1
$GPRMC,192813.600,A,4308.2080,N,07726.5133,W,39.34,181.26,040319,,,A*41
$GPGGA,192813.800,4308.2058,N,07726.5134,W,1,08,1.04,150.8,M,-34.4,M,,*5E
lng=-77.441886, lat=43.136798, altitude=150.70, speed=39.34, satellites=8, angle=181.2600, fixquality=1
$GPRMC,192814.000,A,4308.2036,N,07726.5135,W,39.78,181.22,040319,,,A*47
$GPGGA,192814.200,4308.2014,N,07726.5135,W,1,08,1.04,150.8,M,-34.4,M,,*5A
lng=-77.441894, lat=43.136726, altitude=150.80, speed=39.78, satellites=8, angle=181.2200, fixquality=1
$GPRMC,192814.400,A,4308.1992,N,07726.5136,W,40.13,181.06,040319,,,A*41
$GPGGA,192814.600,4308.1969,N,07726.5137,W,1,08,1.04,150.9,M,-34.4,M,,*5D
lng=-77.441894, lat=43.136653, altitude=150.80, speed=40.13, satellites=8, angle=181.0600, fixquality=1
$GPRMC,192814.800,A,4308.1947,N,07726.5137,W,40.40,181.09,040319,,,A*4D
$GPGGA,192815.000,4308.1924,N,07726.5138,W,1,08,1.04,151.0,M,-34.4,M,,*54
lng=-77.441894, lat=43.136581, altitude=150.90, speed=40.40, satellites=8, angle=181.0900, fixquality=1
$GPRMC,192815.200,A,4308.1902,N,07726.5139,W,40.49,181.10,040319,,,A*48
$GPGGA,192815.400,4308.1879,N,07726.5140,W,1,08,1.04,151.0,M,-34.4,M,,*56
lng=-77.441894, lat=43.136508, altitude=151.00, speed=40.49, satellites=8, angle=181.1000, fixquality=1
$GPRMC,192815.600,A,4308.1856,N,07726.5141,W,40.60,181.00,040319,,,A*49
$GPGGA,192815.800,4308.1834,N,07726.5142,W,1,08,1.04,151.1,M,-34.4,M,,*50
lng=-77.441902, lat=43.136425, altitude=151.00, speed=40.60, satellites=8, angle=181.0000, fixquality=1
$GPRMC,192816.000,A,4308.1811,N,07726.5143,W,41.03,180.91,040319,,,A*40
$GPGGA,192816.200,4308.1788,N,07726.5144,W,1,08,1.04,151.2,M,-34.4,M,,*54
lng=-77.441902, lat=43.136352, altitude=151.10, speed=41.03, satellites=8, angle=180.9100, fixquality=1
$GPRMC,192816.400,A,4308.1765,N,07726.5144,W,41.13,181.13,040319,,,A*45
$GPGGA,192816.600,4308.1742,N,07726.5145,W,1,08,1.04,151.2,M,-34.4,M,,*57
lng=-77.441902, lat=43.136272, altitude=151.20, speed=41.13, satellites=8, angle=181.1300, fixquality=1
$GPRMC,192816.800,A,4308.1719,N,07726.5146,W,41.45,181.28,040319,,,A*4B
$GPGGA,192817.000,4308.1696,N,07726.5147,W,1,08,1.04,151.3,M,-34.4,M,,*5B
lng=-77.441909, lat=43.136196, altitude=151.20, speed=41.45, satellites=8, angle=181.2800, fixquality=1
$GPRMC,192817.200,A,4308.1673,N,07726.5148,W,41.86,181.20,040319,,,A*44
$GPGGA,192817.400,4308.1649,N,07726.5149,W,1,08,1.13,151.3,M,-34.4,M,,*55
lng=-77.441909, lat=43.136123, altitude=151.30, speed=41.86, satellites=8, angle=181.2000, fixquality=1
$GPRMC,192817.600,A,4308.1626,N,07726.5150,W,42.17,181.36,040319,,,A*45
$GPGGA,192817.800,4308.1602,N,07726.5151,W,1,08,1.04,151.4,M,-34.4,M,,*5E
lng=-77.441917, lat=43.136043, altitude=151.30, speed=42.17, satellites=8, angle=181.3600, fixquality=1
$GPRMC,192818.000,A,4308.1578,N,07726.5152,W,42.68,181.37,040319,,,A*4F
$GPGGA,192818.200,4308.1555,N,07726.5153,W,1,08,1.04,151.4,M,-34.4,M,,*58
lng=-77.441917, lat=43.135963, altitude=151.40, speed=42.68, satellites=8, angle=181.3700, fixquality=1
$GPRMC,192818.400,A,4308.1531,N,07726.5154,W,42.93,181.42,040319,,,A*46
$GPGGA,192818.600,4308.1507,N,07726.5155,W,1,08,1.04,151.5,M,-34.4,M,,*5C
lng=-77.441925, lat=43.135887, altitude=151.40, speed=42.93, satellites=8, angle=181.4200, fixquality=1
$GPRMC,192818.800,A,4308.1483,N,07726.5156,W,42.99,181.45,040319,,,A*4D
$GPGGA,192819.000,4308.1459,N,07726.5157,W,1,08,1.04,151.6,M,-34.4,M,,*50
lng=-77.441925, lat=43.135807, altitude=151.50, speed=42.99, satellites=8, angle=181.4500, fixquality=1
$GPRMC,192819.200,A,4308.1435,N,07726.5158,W,42.95,180.84,040319,,,A*45
$GPGGA,192819.400,4308.1411,N,07726.5159,W,1,08,1.04,151.7,M,-34.4,M,,*57
lng=-77.441925, lat=43.135726, altitude=151.60, speed=42.95, satellites=8, angle=180.8400, fixquality=1
$GPRMC,192819.600,A,4308.1387,N,07726.5159,W,42.64,180.75,040319,,,A*4E
$GPGGA,192819.800,4308.1364,N,07726.5160,W,1,08,1.05,151.8,M,-34.4,M,,*5A
lng=-77.441932, lat=43.135643, altitude=151.70, speed=42.64, satellites=8, angle=180.7500, fixquality=1
$GPRMC,192820.000,A,4308.1340,N,07726.5160,W,42.26,180.50,040319,,,A*42
$GPGGA,192820.200,4308.1317,N,07726.5160,W,1,08,1.04,151.8,M,-34.4,M,,*5F
lng=-77.441932, lat=43.135562, altitude=151.80, speed=42.26, satellites=8, angle=180.5000, fixquality=1
$GPRMC,192820.400,A,4308.1294,N,07726.5161,W,41.84,180.43,040319,,,A*46
$GPGGA,192820.600,4308.1270,N,07726.5161,W,1,08,1.05,151.9,M,-34.4,M,,*5A
lng=-77.441932, lat=43.135490, altitude=151.80, speed=41.84, satellites=8, angle=180.4300, fixquality=1
$GPRMC,192820.800,A,4308.1247,N,07726.5161,W,41.64,180.52,040319,,,A*4A
$GPGGA,192821.000,4308.1224,N,07726.5162,W,1,08,1.04,152.0,M,-34.4,M,,*54
lng=-77.441932, lat=43.135410, altitude=151.90, speed=41.64, satellites=8, angle=180.5200, fixquality=1
$GPRMC,192821.200,A,4308.1201,N,07726.5162,W,41.50,180.74,040319,,,A*43
$GPGGA,192821.400,4308.1178,N,07726.5162,W,1,08,1.05,152.1,M,-34.4,M,,*5A
lng=-77.441932, lat=43.135334, altitude=152.00, speed=41.50, satellites=8, angle=180.7400, fixquality=1
$GPRMC,192821.600,A,4308.1156,N,07726.5163,W,41.37,180.64,040319,,,A*47
$GPGGA,192821.800,4308.1133,N,07726.5164,W,1,08,1.04,152.2,M,-34.4,M,,*5D
lng=-77.441932, lat=43.135261, altitude=152.10, speed=41.37, satellites=8, angle=180.6400, fixquality=1
$GPRMC,192822.000,A,4308.1110,N,07726.5164,W,40.74,180.57,040319,,,A*41
$GPGGA,192822.200,4308.1088,N,07726.5164,W,1,08,1.13,152.2,M,-34.4,M,,*53
lng=-77.441940, lat=43.135181, altitude=152.20, speed=40.74, satellites=8, angle=180.5700, fixquality=1
$GPRMC,192822.400,A,4308.1065,N,07726.5165,W,40.63,180.72,040319,,,A*46
$GPGGA,192822.600,4308.1042,N,07726.5166,W,1,08,1.04,152.3,M,-34.4,M,,*54
lng=-77.441940, lat=43.135108, altitude=152.20, speed=40.63, satellites=8, angle=180.7200, fixquality=1
$GPRMC,192822.800,A,4308.1020,N,07726.5166,W,40.54,180.53,040319,,,A*4F
$GPGGA,192823.000,4308.0997,N,07726.5167,W,1,08,1.04,152.5,M,-34.4,M,,*54
lng=-77.441940, lat=43.135032, altitude=152.30, speed=40.54, satellites=8, angle=180.5300, fixquality=1
$GPRMC,192823.200,A,4308.0974,N,07726.5167,W,40.48,180.21,040319,,,A*44
$GPGGA,192823.400,4308.0951,N,07726.5167,W,1,08,1.05,152.6,M,-34.4,M,,*58
lng=-77.441940, lat=43.134952, altitude=152.50, speed=40.48, satellites=8, angle=180.2100, fixquality=1
$GPRMC,192823.600,A,4308.0929,N,07726.5167,W,40.53,179.92,040319,,,A*4C
$GPGGA,192823.800,4308.0906,N,07726.5167,W,1,08,1.05,152.7,M,-34.4,M,,*57
lng=-77.441940, lat=43.134880, altitude=152.60, speed=40.53, satellites=8, angle=179.9200, fixquality=1
$GPRMC,192824.000,A,4308.0883,N,07726.5167,W,40.64,179.48,040319,,,A*4F
$GPGGA,192824.200,4308.0860,N,07726.5166,W,1,08,1.05,152.8,M,-34.4,M,,*55
lng=-77.441940, lat=43.134807, altitude=152.70, speed=40.64, satellites=8, angle=179.4800, fixquality=1
$GPRMC,192824.400,A,4308.0837,N,07726.5166,W,40.88,179.07,040319,,,A*4C
$GPGGA,192824.600,4308.0814,N,07726.5165,W,1,08,1.05,152.9,M,-34.4,M,,*50
lng=-77.441940, lat=43.134723, altitude=152.80, speed=40.88, satellites=8, angle=179.0700, fixquality=1
$GPRMC,192824.800,A,4308.0791,N,07726.5164,W,41.01,178.65,040319,,,A*44
$GPGGA,192825.000,4308.0768,N,07726.5163,W,1,08,1.13,153.0,M,-34.4,M,,*5A
lng=-77.441940, lat=43.134651, altitude=152.90, speed=41.01, satellites=8, angle=178.6500, fixquality=1
$GPRMC,192825.200,A,4308.0745,N,07726.5162,W,41.14,178.31,040319,,,A*45
$GPGGA,192825.400,4308.0721,N,07726.5161,W,1,08,1.13,153.0,M,-34.4,M,,*51
lng=-77.441932, lat=43.134578, altitude=153.00, speed=41.14, satellites=8, angle=178.3100, fixquality=1
$GPRMC,192825.600,A,4308.0698,N,07726.5160,W,41.37,178.20,040319,,,A*43
$GPGGA,192825.800,4308.0675,N,07726.5159,W,1,08,1.05,153.1,M,-34.4,M,,*50
lng=-77.441932, lat=43.134498, altitude=153.00, speed=41.37, satellites=8, angle=178.2000, fixquality=1
$GPRMC,192826.000,A,4308.0651,N,07726.5158,W,41.50,178.20,040319,,,A*49
$GPGGA,192826.200,4308.0628,N,07726.5157,W,1,08,1.13,153.0,M,-34.4,M,,*59
lng=-77.441925, lat=43.134414, altitude=153.10, speed=41.50, satellites=8, angle=178.2000, fixquality=1
$GPRMC,192826.400,A,4308.0605,N,07726.5156,W,41.85,178.16,040319,,,A*4F
$GPGGA,192826.600,4308.0581,N,07726.5154,W,1,08,1.05,153.0,M,-34.4,M,,*59
lng=-77.441925, lat=43.134342, altitude=153.00, speed=41.85, satellites=8, angle=178.1600, fixquality=1
$GPRMC,192826.800,A,4308.0558,N,07726.5153,W,41.94,178.02,040319,,,A*48
$GPGGA,192827.000,4308.0534,N,07726.5152,W,1,08,1.13,152.9,M,-34.4,M,,*59
lng=-77.441917, lat=43.134262, altitude=153.00, speed=41.94, satellites=8, angle=178.0200, fixquality=1
$GPRMC,192827.200,A,4308.0511,N,07726.5150,W,42.28,177.40,040319,,,A*40
$GPGGA,192827.400,4308.0487,N,07726.5149,W,1,08,1.13,152.9,M,-34.4,M,,*5E
lng=-77.441917, lat=43.134189, altitude=152.90, speed=42.28, satellites=8, angle=177.4000, fixquality=1
$GPRMC,192827.600,A,4308.0463,N,07726.5147,W,42.33,177.15,040319,,,A*4C
$GPGGA,192827.800,4308.0440,N,07726.5144,W,1,08,1.05,152.8,M,-34.4,M,,*52
lng=-77.441909, lat=43.134105, altitude=152.90, speed=42.33, satellites=8, angle=177.1500, fixquality=1
$GPRMC,192828.000,A,4308.0416,N,07726.5142,W,42.35,176.58,040319,,,A*4C
$GPGGA,192828.200,4308.0392,N,07726.5140,W,1,08,1.13,152.7,M,-34.4,M,,*53
lng=-77.441902, lat=43.134025, altitude=152.80, speed=42.35, satellites=8, angle=176.5800, fixquality=1
$GPRMC,192828.400,A,4308.0368,N,07726.5138,W,42.62,176.33,040319,,,A*44
$GPGGA,192828.600,4308.0344,N,07726.5136,W,1,08,1.05,152.7,M,-34.3,M,,*5D
lng=-77.441894, lat=43.133945, altitude=152.70, speed=42.62, satellites=8, angle=176.3300, fixquality=1
$GPRMC,192828.800,A,4308.0320,N,07726.5133,W,42.72,175.98,040319,,,A*4C
$GPGGA,192829.000,4308.0296,N,07726.5131,W,1,08,1.13,152.7,M,-34.3,M,,*54
lng=-77.441886, lat=43.133869, altitude=152.70, speed=42.72, satellites=8, angle=175.9800, fixquality=1
$GPRMC,192829.200,A,4308.0272,N,07726.5128,W,43.01,175.17,040319,,,A*49
$GPGGA,192829.400,4308.0248,N,07726.5125,W,1,08,1.13,152.6,M,-34.3,M,,*57
lng=-77.441879, lat=43.133789, altitude=152.70, speed=43.01, satellites=8, angle=175.1700, fixquality=1
$GPRMC,192829.600,A,4308.0224,N,07726.5122,W,43.25,174.39,040319,,,A*4F
$GPGGA,192829.800,4308.0200,N,07726.5119,W,1,08,1.05,152.6,M,-34.3,M,,*5F
lng=-77.441871, lat=43.133708, altitude=152.60, speed=43.25, satellites=8, angle=174.3900, fixquality=1
$GPRMC,192830.000,A,4308.0175,N,07726.5116,W,43.36,173.83,040319,,,A*45
$GPGGA,192830.200,4308.0152,N,07726.5112,W,1,08,1.13,152.6,M,-34.3,M,,*55
lng=-77.441864, lat=43.133625, altitude=152.60, speed=43.36, satellites=8, angle=173.8300, fixquality=1
$GPRMC,192830.400,A,4308.0129,N,07726.5109,W,43.06,173.17,040319,,,A*48
$GPGGA,192830.600,4308.0105,N,07726.5105,W,1,08,1.05,152.6,M,-34.3,M,,*52
lng=-77.441848, lat=43.133544, altitude=152.60, speed=43.06, satellites=8, angle=173.1700, fixquality=1
$GPRMC,192830.800,A,4308.0082,N,07726.5101,W,42.97,172.78,040319,,,A*4D
$GPGGA,192831.000,4308.0058,N,07726.5098,W,1,08,1.05,152.7,M,-34.3,M,,*58
lng=-77.441841, lat=43.133472, altitude=152.60, speed=42.97, satellites=8, angle=172.7800, fixquality=1
$GPRMC,192831.200,A,4308.0035,N,07726.5094,W,42.73,172.29,040319,,,A*49
$GPGGA,192831.400,4308.0012,N,07726.5090,W,1,07,1.64,152.8,M,-34.3,M,,*5D
lng=-77.441818, lat=43.133388, altitude=152.70, speed=42.73, satellites=8, angle=172.2900, fixquality=1
$GPRMC,192831.600,A,4307.9989,N,07726.5086,W,42.56,172.20,040319,,,A*48
$GPGGA,192831.800,4307.9966,N,07726.5082,W,1,07,1.64,152.9,M,-34.3,M,,*5F
lng=-77.441810, lat=43.133316, altitude=152.80, speed=42.56, satellites=7, angle=172.2000, fixquality=1
$GPRMC,192832.000,A,4307.9943,N,07726.5077,W,41.30,171.89,040319,,,A*46
$GPGGA,192832.200,4307.9921,N,07726.5073,W,1,07,1.64,153.1,M,-34.3,M,,*52
lng=-77.441795, lat=43.133235, altitude=152.90, speed=41.30, satellites=7, angle=171.8900, fixquality=1
$GPRMC,192832.400,A,4307.9898,N,07726.5069,W,41.01,171.78,040319,,,A*46
$GPGGA,192832.600,4307.9876,N,07726.5065,W,1,07,1.33,153.2,M,-34.3,M,,*53
lng=-77.441780, lat=43.133163, altitude=153.10, speed=41.01, satellites=7, angle=171.7800, fixquality=1
$GPRMC,192832.800,A,4307.9853,N,07726.5060,W,40.40,171.24,040319,,,A*49
$GPGGA,192833.000,4307.9831,N,07726.5056,W,1,07,1.64,153.3,M,-34.3,M,,*54
lng=-77.441764, lat=43.133090, altitude=153.20, speed=40.40, satellites=7, angle=171.2400, fixquality=1
$GPRMC,192833.200,A,4307.9809,N,07726.5052,W,40.02,171.08,040319,,,A*44
$GPGGA,192833.400,4307.9787,N,07726.5047,W,1,07,1.64,153.3,M,-34.3,M,,*52
lng=-77.441757, lat=43.133014, altitude=153.30, speed=40.02, satellites=7, angle=171.0800, fixquality=1
$GPRMC,192833.600,A,4307.9765,N,07726.5042,W,39.85,170.64,040319,,,A*4E
$GPGGA,192833.800,4307.9743,N,07726.5038,W,1,07,1.64,153.4,M,-34.3,M,,*59
lng=-77.441741, lat=43.132942, altitude=153.30, speed=39.85, satellites=7, angle=170.6400, fixquality=1
$GPRMC,192834.000,A,4307.9721,N,07726.5033,W,39.66,170.20,040319,,,A*44
$GPGGA,192834.200,4307.9700,N,07726.5028,W,1,07,1.64,153.4,M,-34.3,M,,*52
lng=-77.441726, lat=43.132869, altitude=153.40, speed=39.66, satellites=7, angle=170.2000, fixquality=1
$GPRMC,192834.400,A,4307.9679,N,07726.5023,W,39.49,170.15,040319,,,A*46
$GPGGA,192834.600,4307.9658,N,07726.5018,W,1,07,1.64,153.3,M,-34.3,M,,*5E
lng=-77.441703, lat=43.132797, altitude=153.40, speed=39.49, satellites=7, angle=170.1500, fixquality=1
$GPRMC,192834.800,A,4307.9637,N,07726.5013,W,39.30,169.99,040319,,,A*41
$GPGGA,192835.000,4307.9616,N,07726.5008,W,1,07,1.64,153.3,M,-34.3,M,,*52
lng=-77.441688, lat=43.132732, altitude=153.30, speed=39.30, satellites=7, angle=169.9900, fixquality=1
$GPRMC,192835.200,A,4307.9595,N,07726.5003,W,38.09,170.11,040319,,,A*43
$GPGGA,192835.400,4307.9574,N,07726.4999,W,1,07,1.64,153.3,M,-34.3,M,,*51
lng=-77.441673, lat=43.132656, altitude=153.30, speed=38.09, satellites=7, angle=170.1100, fixquality=1
$GPRMC,192835.600,A,4307.9553,N,07726.4994,W,38.09,170.26,040319,,,A*4F
$GPGGA,192835.800,4307.9532,N,07726.4989,W,1,07,1.33,153.3,M,-34.3,M,,*5C
lng=-77.441658, lat=43.132583, altitude=153.30, speed=38.09, satellites=7, angle=170.2600, fixquality=1
$GPRMC,192836.000,A,4307.9512,N,07726.4985,W,37.67,171.03,040319,,,A*4E
$GPGGA,192836.200,4307.9491,N,07726.4981,W,1,07,1.64,153.3,M,-34.3,M,,*57
lng=-77.441642, lat=43.132518, altitude=153.30, speed=37.67, satellites=7, angle=171.0300, fixquality=1
$GPRMC,192836.400,A,4307.9471,N,07726.4977,W,37.23,171.79,040319,,,A*4E
$GPGGA,192836.600,4307.9451,N,07726.4973,W,1,07,1.32,153.3,M,-34.3,M,,*51
lng=-77.441627, lat=43.132453, altitude=153.30, speed=37.23, satellites=7, angle=171.7900, fixquality=1
$GPRMC,192836.800,A,4307.9430,N,07726.4969,W,37.17,172.53,040319,,,A*44
$GPGGA,192837.000,4307.9410,N,07726.4966,W,1,07,1.64,153.2,M,-34.3,M,,*55
lng=-77.441619, lat=43.132381, altitude=153.30, speed=37.17, satellites=7, angle=172.5300, fixquality=1
$GPRMC,192837.200,A,4307.9390,N,07726.4963,W,37.00,173.15,040319,,,A*4D
$GPGGA,192837.400,4307.9370,N,07726.4959,W,1,07,1.64,153.2,M,-34.3,M,,*5C
lng=-77.441604, lat=43.132316, altitude=153.20, speed=37.00, satellites=7, angle=173.1500, fixquality=1
$GPRMC,192837.600,A,4307.9350,N,07726.4956,W,36.88,173.54,040319,,,A*47
$GPGGA,192837.800,4307.9330,N,07726.4953,W,1,08,1.13,153.2,M,-34.3,M,,*51
lng=-77.441596, lat=43.132251, altitude=153.20, speed=36.88, satellites=7, angle=173.5400, fixquality=1
$GPRMC,192838.000,A,4307.9310,N,07726.4951,W,36.46,174.64,040319,,,A*4B
$GPGGA,192838.200,4307.9290,N,07726.4949,W,1,08,1.13,153.2,M,-34.3,M,,*54
lng=-77.441581, lat=43.132186, altitude=153.20, speed=36.46, satellites=8, angle=174.6400, fixquality=1
$GPRMC,192838.400,A,4307.9270,N,07726.4946,W,36.21,175.14,040319,,,A*49
$GPGGA,192838.600,4307.9250,N,07726.4945,W,1,08,1.13,153.1,M,-34.3,M,,*53
lng=-77.441574, lat=43.132114, altitude=153.20, speed=36.21, satellites=8, angle=175.1400, fixquality=1
$GPRMC,192838.800,A,4307.9231,N,07726.4943,W,35.33,176.17,040319,,,A*45
$GPGGA,192839.000,4307.9211,N,07726.4941,W,1,08,1.13,153.1,M,-34.3,M,,*55
lng=-77.441566, lat=43.132057, altitude=153.10, speed=35.33, satellites=8, angle=176.1700, fixquality=1
$GPRMC,192839.200,A,4307.9192,N,07726.4939,W,35.36,176.98,040319,,,A*4B
$GPGGA,192839.400,4307.9172,N,07726.4938,W,1,08,1.13,153.1,M,-34.3,M,,*59
lng=-77.441566, lat=43.131992, altitude=153.10, speed=35.36, satellites=8, angle=176.9800, fixquality=1
$GPRMC,192839.600,A,4307.9153,N,07726.4937,W,35.28,177.32,040319,,,A*42
$GPGGA,192839.800,4307.9133,N,07726.4936,W,1,08,1.05,153.1,M,-34.3,M,,*59
lng=-77.441558, lat=43.131923, altitude=153.10, speed=35.28, satellites=8, angle=177.3200, fixquality=1
$GPRMC,192840.000,A,4307.9114,N,07726.4934,W,34.57,177.12,040319,,,A*41
$GPGGA,192840.200,4307.9095,N,07726.4933,W,1,08,1.13,153.1,M,-34.3,M,,*52
lng=-77.441551, lat=43.131858, altitude=153.10, speed=34.57, satellites=8, angle=177.1200, fixquality=1
$GPRMC,192840.400,A,4307.9076,N,07726.4931,W,34.32,176.95,040319,,,A*48
$GPGGA,192840.600,4307.9057,N,07726.4929,W,1,08,1.05,152.9,M,-34.3,M,,*5D
lng=-77.441551, lat=43.131793, altitude=153.10, speed=34.32, satellites=8, angle=176.9500, fixquality=1
$GPRMC,192840.800,A,4307.9039,N,07726.4927,W,34.05,176.54,040319,,,A*41
$GPGGA,192841.000,4307.9020,N,07726.4925,W,1,08,1.05,152.8,M,-34.3,M,,*57
lng=-77.441543, lat=43.131729, altitude=152.90, speed=34.05, satellites=8, angle=176.5400, fixquality=1
$GPRMC,192841.200,A,4307.9002,N,07726.4923,W,33.92,175.95,040319,,,A*41
$GPGGA,192841.400,4307.8983,N,07726.4921,W,1,08,1.05,152.8,M,-34.3,M,,*56
lng=-77.441535, lat=43.131671, altitude=152.80, speed=33.92, satellites=8, angle=175.9500, fixquality=1
$GPRMC,192841.600,A,4307.8965,N,07726.4919,W,33.75,175.52,040319,,,A*47
$GPGGA,192841.800,4307.8947,N,07726.4917,W,1,08,1.05,152.7,M,-34.3,M,,*58
lng=-77.441528, lat=43.131607, altitude=152.80, speed=33.75, satellites=8, angle=175.5200, fixquality=1
$GPRMC,192842.000,A,4307.8929,N,07726.4915,W,32.07,175.26,040319,,,A*41
$GPGGA,192842.200,4307.8912,N,07726.4913,W,1,08,1.13,152.7,M,-34.3,M,,*52
lng=-77.441528, lat=43.131549, altitude=152.70, speed=32.07, satellites=8, angle=175.2600, fixquality=1
$GPRMC,192842.400,A,4307.8895,N,07726.4911,W,30.60,175.47,040319,,,A*43
$GPGGA,192842.600,4307.8878,N,07726.4909,W,1,08,1.13,152.6,M,-34.3,M,,*51
lng=-77.441520, lat=43.131492, altitude=152.70, speed=30.60, satellites=8, angle=175.4700, fixquality=1
$GPRMC,192842.800,A,4307.8862,N,07726.4907,W,29.31,175.52,040319,,,A*48
$GPGGA,192843.000,4307.8846,N,07726.4905,W,1,08,1.13,152.5,M,-34.3,M,,*54
lng=-77.441513, lat=43.131435, altitude=152.60, speed=29.31, satellites=8, angle=175.5200, fixquality=1
$GPRMC,192843.200,A,4307.8831,N,07726.4904,W,27.39,175.67,040319,,,A*46
$GPGGA,192843.400,4307.8816,N,07726.4902,W,1,08,1.13,152.4,M,-34.3,M,,*53
lng=-77.441505, lat=43.131389, altitude=152.50, speed=27.39, satellites=8, angle=175.6700, fixquality=1
$GPRMC,192843.600,A,4307.8802,N,07726.4900,W,25.63,175.44,040319,,,A*4A
$GPGGA,192843.800,4307.8788,N,07726.4899,W,1,08,1.13,152.4,M,-34.3,M,,*54
lng=-77.441505, lat=43.131340, altitude=152.40, speed=25.63, satellites=8, angle=175.4400, fixquality=1
$GPRMC,192844.000,A,4307.8775,N,07726.4897,W,23.83,175.41,040319,,,A*46
$GPGGA,192844.200,4307.8762,N,07726.4896,W,1,08,1.13,152.3,M,-34.3,M,,*55
lng=-77.441497, lat=43.131290, altitude=152.40, speed=23.83, satellites=8, angle=175.4100, fixquality=1
$GPRMC,192844.400,A,4307.8750,N,07726.4895,W,22.18,175.38,040319,,,A*4A
$GPGGA,192844.600,4307.8738,N,07726.4893,W,1,08,1.13,152.2,M,-34.3,M,,*5A
lng=-77.441490, lat=43.131248, altitude=152.30, speed=22.18, satellites=8, angle=175.3800, fixquality=1
$GPRMC,192844.800,A,4307.8726,N,07726.4892,W,20.44,176.04,040319,,,A*47
$GPGGA,192845.000,4307.8715,N,07726.4891,W,1,08,1.13,152.2,M,-34.3,M,,*50
lng=-77.441490, lat=43.131210, altitude=152.20, speed=20.44, satellites=8, angle=176.0400, fixquality=1
$GPRMC,192845.200,A,4307.8705,N,07726.4890,W,19.09,176.56,040319,,,A*4B
$GPGGA,192845.400,4307.8694,N,07726.4889,W,1,08,1.13,152.1,M,-34.3,M,,*56
lng=-77.441482, lat=43.131175, altitude=152.20, speed=19.09, satellites=8, angle=176.5600, fixquality=1
$GPRMC,192845.600,A,4307.8684,N,07726.4888,W,17.34,177.27,040319,,,A*49
$GPGGA,192845.800,4307.8675,N,07726.4887,W,1,08,1.13,152.1,M,-34.3,M,,*5B
